{
"type": "FeatureCollection",
"crs": { "type": "name", "properties": { "name": "urn:ogc:def:crs:EPSG::5174" } },
"features": [
{ "type": "Feature", "properties": { "station_id": "ST-997", "address": "서울특별시 양천구 목동중앙로 49", "address_detail": "목동3단지 시내버스정류장", "latitude": 37.53439, "longitude": 126.869598, "dist_to_subway": 1011.8858948577969 }, "geometry": { "type": "Point", "coordinates": [ 188404.675940885528689, 448023.914623658638448 ] } },
{ "type": "Feature", "properties": { "station_id": "ST-996", "address": "서울특별시 양천구 남부순환로88길5-16", "address_detail": "양강중학교앞 교차로", "latitude": 37.524334, "longitude": 126.850548, "dist_to_subway": 504.22409188948421 }, "geometry": { "type": "Point", "coordinates": [ 186719.137618637323612, 446910.345414674840868 ] } },
{ "type": "Feature", "properties": { "station_id": "ST-995", "address": "서울특별시 양천구 중앙로 153 공중화장실", "address_detail": null, "latitude": 37.510597, "longitude": 126.857323, "dist_to_subway": 777.29643340961798 }, "geometry": { "type": "Point", "coordinates": [ 187315.694346944626886, 445384.758617215265986 ] } },
{ "type": "Feature", "properties": { "station_id": "ST-994", "address": "서울특별시 양천구 목동서로161", "address_detail": "SBS방송국", "latitude": 37.529163, "longitude": 126.872749, "dist_to_subway": 560.82256862711529 }, "geometry": { "type": "Point", "coordinates": [ 188682.384908909152728, 447443.391119924897794 ] } },
{ "type": "Feature", "properties": { "station_id": "ST-993", "address": "서울특별시 양천구 신월로 342-1 구두수선대19", "address_detail": null, "latitude": 37.521511, "longitude": 126.857384, "dist_to_subway": 401.02154447932645 }, "geometry": { "type": "Point", "coordinates": [ 187322.94316468940815, 446596.077142110501882 ] } },
{ "type": "Feature", "properties": { "station_id": "ST-992", "address": "서울특별시 마포구 마포대로 163", "address_detail": "서울신용보증재단", "latitude": 37.549061, "longitude": 126.954178, "dist_to_subway": 568.97617877559935 }, "geometry": { "type": "Point", "coordinates": [ 195881.151993295090506, 449645.106318375270348 ] } },
{ "type": "Feature", "properties": { "station_id": "ST-991", "address": "서울특별시 마포구 성암로330", "address_detail": "DMC첨단산업센터", "latitude": 37.584503, "longitude": 126.885597, "dist_to_subway": 973.39018282283814 }, "geometry": { "type": "Point", "coordinates": [ 189825.617237645579735, 453584.049849672941491 ] } },
{ "type": "Feature", "properties": { "station_id": "ST-990", "address": "서울특별시 상암동 1715-29", "address_detail": "롯데하이마트 (상암월드컵점)", "latitude": 37.57362, "longitude": 126.898048, "dist_to_subway": 373.78270206006283 }, "geometry": { "type": "Point", "coordinates": [ 190924.039858406729763, 452374.867057018796913 ] } },
{ "type": "Feature", "properties": { "station_id": "ST-99", "address": "서울특별시 광진구 능동로 10", "address_detail": "뚝섬유원지역 1번출구 앞", "latitude": 37.53186, "longitude": 127.067192, "dist_to_subway": 55.874235343176423 }, "geometry": { "type": "Point", "coordinates": [ 205869.338321569026448, 447736.962958315969445 ] } },
{ "type": "Feature", "properties": { "station_id": "ST-988", "address": "서울특별시 광진구 능동로 42", "address_detail": "신양초교앞 교차로", "latitude": 37.535221, "longitude": 127.068398, "dist_to_subway": 435.12140124415845 }, "geometry": { "type": "Point", "coordinates": [ 205975.669704752130201, 448110.070745471806731 ] } },
{ "type": "Feature", "properties": { "station_id": "ST-987", "address": "서울특별시 광진구 아차산로 304", "address_detail": "원일교회", "latitude": 37.538052, "longitude": 127.076599, "dist_to_subway": 579.63884794212743 }, "geometry": { "type": "Point", "coordinates": [ 206700.261205579532543, 448424.826695223920979 ] } },
{ "type": "Feature", "properties": { "station_id": "ST-986", "address": "서울특별시 광진구 아차산로78길 7", "address_detail": "광진유진스웰", "latitude": 37.550488, "longitude": 127.108955, "dist_to_subway": 746.74490907479026 }, "geometry": { "type": "Point", "coordinates": [ 209558.34948871054803, 449807.858790711616166 ] } },
{ "type": "Feature", "properties": { "station_id": "ST-985", "address": "서울특별시 광진구 능동로 지하 417", "address_detail": "중곡역 1번출구 앞", "latitude": 37.565659, "longitude": 127.084297, "dist_to_subway": 29.371539814617481 }, "geometry": { "type": "Point", "coordinates": [ 207377.922495127364527, 451489.469756436883472 ] } },
{ "type": "Feature", "properties": { "station_id": "ST-984", "address": "서울특별시 광진구 자양로 131", "address_detail": "광진구청 앞", "latitude": 37.539501, "longitude": 127.083, "dist_to_subway": 372.55859090052979 }, "geometry": { "type": "Point", "coordinates": [ 207265.850512885459466, 448586.120242160279304 ] } },
{ "type": "Feature", "properties": { "station_id": "ST-983", "address": "서울특별시 광진구 능동로 313", "address_detail": "군자역2번출구", "latitude": 37.557587, "longitude": 127.079697, "dist_to_subway": 56.38938357636578 }, "geometry": { "type": "Point", "coordinates": [ 206972.263633351249155, 450593.217454105673824 ] } },
{ "type": "Feature", "properties": { "station_id": "ST-982", "address": "서울특별시 마포구 월드컵로 251", "address_detail": "이동정비", "latitude": 37.564224, "longitude": 126.897522, "dist_to_subway": 520.27593281182101 }, "geometry": { "type": "Point", "coordinates": [ 190876.419339250714984, 451332.062890501052607 ] } },
{ "type": "Feature", "properties": { "station_id": "ST-981", "address": "서울특별시 송파구 중대로 16", "address_detail": "송파구 중대로 16", "latitude": 37.489872, "longitude": 127.11084, "dist_to_subway": 666.00616677118592 }, "geometry": { "type": "Point", "coordinates": [ 209732.738150416698772, 443080.379453690140508 ] } },
{ "type": "Feature", "properties": { "station_id": "ST-980", "address": "서울특별시 광진구 자양동 749", "address_detail": null, "latitude": 37.528454, "longitude": 127.078033, "dist_to_subway": 1058.3358002330956 }, "geometry": { "type": "Point", "coordinates": [ 206827.866604184993776, 447359.6602925969637 ] } },
{ "type": "Feature", "properties": { "station_id": "ST-98", "address": "서울특별시 광진구 능동로 76", "address_detail": "광진구의회 앞", "latitude": 37.537308, "longitude": 127.070351, "dist_to_subway": 355.29331828185434 }, "geometry": { "type": "Point", "coordinates": [ 206148.115350685606245, 448341.828598975087516 ] } },
{ "type": "Feature", "properties": { "station_id": "ST-979", "address": "서울특별시 종로구 청와대로 73", "address_detail": "종로구 세종로 1-54", "latitude": 37.583515, "longitude": 126.979668, "dist_to_subway": 932.95439078651327 }, "geometry": { "type": "Point", "coordinates": [ 198134.548609993886203, 453468.299472760874778 ] } },
{ "type": "Feature", "properties": { "station_id": "ST-978", "address": "서울특별시 종로구 효자로13길 45", "address_detail": "종로구 궁정동 98-2", "latitude": 37.583603, "longitude": 126.972549, "dist_to_subway": 874.57185606228234 }, "geometry": { "type": "Point", "coordinates": [ 197505.747487556363922, 453478.236629946622998 ] } },
{ "type": "Feature", "properties": { "station_id": "ST-977", "address": "서울특별시 중구 덕수궁길 61 서울시립미술관", "address_detail": null, "latitude": 37.565052, "longitude": 126.973404, "dist_to_subway": 240.50867307634113 }, "geometry": { "type": "Point", "coordinates": [ 197580.651443602168001, 451419.250141809694469 ] } },
{ "type": "Feature", "properties": { "station_id": "ST-976", "address": "서울특별시 관악구 신림동 1422-43", "address_detail": null, "latitude": 37.484509, "longitude": 126.930069, "dist_to_subway": 46.355575406243702 }, "geometry": { "type": "Point", "coordinates": [ 193745.240338709030766, 442481.936312906094827 ] } },
{ "type": "Feature", "properties": { "station_id": "ST-975", "address": "서울특별시 강서구 마곡서1로 111-12", "address_detail": "신방화역환승주차장", "latitude": 37.567284, "longitude": 126.818275, "dist_to_subway": 150.43239799813347 }, "geometry": { "type": "Point", "coordinates": [ 183875.573165179637726, 451682.389115877565928 ] } },
{ "type": "Feature", "properties": { "station_id": "ST-974", "address": "서울특별시 광진구 능동로 120", "address_detail": "학생회관", "latitude": 37.541912, "longitude": 127.077637, "dist_to_subway": 598.77592181630268 }, "geometry": { "type": "Point", "coordinates": [ 206791.654207826184575, 448853.316918826487381 ] } },
{ "type": "Feature", "properties": { "station_id": "ST-973", "address": "서울특별시 광진구 능동로 120", "address_detail": "행정관", "latitude": 37.542778, "longitude": 127.075371, "dist_to_subway": 444.24623211461727 }, "geometry": { "type": "Point", "coordinates": [ 206591.31703843534342, 448949.273497120128013 ] } },
{ "type": "Feature", "properties": { "station_id": "ST-972", "address": "서울특별시 광진구 능동로 120", "address_detail": "입학정보관", "latitude": 37.53989, "longitude": 127.073364, "dist_to_subway": 230.50970800783364 }, "geometry": { "type": "Point", "coordinates": [ 206414.191882369690575, 448628.600582965475041 ] } },
{ "type": "Feature", "properties": { "station_id": "ST-971", "address": "서울특별시 노원구 마들로 86", "address_detail": "한내근린공원 북측", "latitude": 37.623863, "longitude": 127.068489, "dist_to_subway": 441.41740316097781 }, "geometry": { "type": "Point", "coordinates": [ 205976.700067381432746, 457948.404897154076025 ] } },
{ "type": "Feature", "properties": { "station_id": "ST-970", "address": "서울특별시 노원구 마들로 86", "address_detail": "한내근린공원 남측", "latitude": 37.621555, "longitude": 127.069511, "dist_to_subway": 552.50330798357254 }, "geometry": { "type": "Point", "coordinates": [ 206067.107695724087534, 457692.304179431463126 ] } },
{ "type": "Feature", "properties": { "station_id": "ST-97", "address": "서울특별시 광진구 능동로 지하210", "address_detail": "어린이대공원역 3번출구 앞", "latitude": 37.54707, "longitude": 127.074272, "dist_to_subway": 110.18639504294504 }, "geometry": { "type": "Point", "coordinates": [ 206493.823548002226744, 449425.561779885960277 ] } },
{ "type": "Feature", "properties": { "station_id": "ST-969", "address": "서울특별시 서초구 방배천로 54", "address_detail": "방배경찰서 민원봉사실 앞", "latitude": 37.481293, "longitude": 126.982483, "dist_to_subway": 440.09020097262254 }, "geometry": { "type": "Point", "coordinates": [ 198380.894741107476875, 442122.772810734517407 ] } },
{ "type": "Feature", "properties": { "station_id": "ST-968", "address": "서울특별시 마포구 성산동 661", "address_detail": null, "latitude": 37.568977, "longitude": 126.894402, "dist_to_subway": 436.89909731608839 }, "geometry": { "type": "Point", "coordinates": [ 190601.367292970389826, 451859.904421783809084 ] } },
{ "type": "Feature", "properties": { "station_id": "ST-967", "address": "서울특별시 성동구 자동차시장길 49", "address_detail": "중랑물재생센터", "latitude": 37.558304, "longitude": 127.05806, "dist_to_subway": 676.31715689691896 }, "geometry": { "type": "Point", "coordinates": [ 205060.408809898333857, 450671.426632235059515 ] } },
{ "type": "Feature", "properties": { "station_id": "ST-966", "address": "서울특별시 강남구 언주로 427 디오빌역삼", "address_detail": null, "latitude": 37.501663, "longitude": 127.042976, "dist_to_subway": 546.22982070956664 }, "geometry": { "type": "Point", "coordinates": [ 203730.397053590393625, 444384.23124518658733 ] } },
{ "type": "Feature", "properties": { "station_id": "ST-965", "address": "서울특별시 관악구 남부순환로 1830", "address_detail": "서울대입구역1번출구", "latitude": 37.480869, "longitude": 126.953316, "dist_to_subway": 66.065352852465949 }, "geometry": { "type": "Point", "coordinates": [ 195801.101411127689062, 442076.635026247939095 ] } },
{ "type": "Feature", "properties": { "station_id": "ST-964", "address": "서울특별시 노원구 화랑로 621 서울여자대학교", "address_detail": "서울여대 후문", "latitude": 37.625317, "longitude": 127.088135, "dist_to_subway": 657.62825713995653 }, "geometry": { "type": "Point", "coordinates": [ 207710.898434239497874, 458111.203790968342219 ] } },
{ "type": "Feature", "properties": { "station_id": "ST-963", "address": "서울특별시 강남구 학동로 342", "address_detail": "강남구청역 2번출구 뒤", "latitude": 37.516811, "longitude": 127.040474, "dist_to_subway": 80.221223705368431 }, "geometry": { "type": "Point", "coordinates": [ 203508.463695461163297, 446065.384838027879596 ] } },
{ "type": "Feature", "properties": { "station_id": "ST-962", "address": "서울특별시 강남구 언주로 721", "address_detail": "서울본부세관(건설회관 앞)", "latitude": 37.51759, "longitude": 127.035027, "dist_to_subway": 477.46125850342321 }, "geometry": { "type": "Point", "coordinates": [ 203026.883575884829042, 446151.659258240775671 ] } },
{ "type": "Feature", "properties": { "station_id": "ST-961", "address": "서울특별시 강남구 언주로 726", "address_detail": "두산건설 본사", "latitude": 37.518639, "longitude": 127.0354, "dist_to_subway": 524.73798991586148 }, "geometry": { "type": "Point", "coordinates": [ 203059.816868779453216, 446268.097785166348331 ] } },
{ "type": "Feature", "properties": { "station_id": "ST-960", "address": "서울특별시 강남구 선릉로69길 19", "address_detail": "102동 앞", "latitude": 37.494823, "longitude": 127.047905, "dist_to_subway": 466.51665374732852 }, "geometry": { "type": "Point", "coordinates": [ 204166.614095387543784, 443625.277279357949737 ] } },
{ "type": "Feature", "properties": { "station_id": "ST-96", "address": "서울특별시 마포구 월드컵북로 502-7", "address_detail": "상암월드컵파크 1단지", "latitude": 37.575665, "longitude": 126.894447, "dist_to_subway": 394.67117872589478 }, "geometry": { "type": "Point", "coordinates": [ 190606.188599177723518, 452602.196779723337386 ] } },
{ "type": "Feature", "properties": { "station_id": "ST-959", "address": "서울특별시 강남구 테헤란로 지하 156", "address_detail": "역삼빌딩", "latitude": 37.501545, "longitude": 127.038567, "dist_to_subway": 212.92756404999446 }, "geometry": { "type": "Point", "coordinates": [ 203340.539889253821457, 444370.972063789900858 ] } },
{ "type": "Feature", "properties": { "station_id": "ST-958", "address": "서울특별시 강남구 논현로10길 29", "address_detail": "국립국악중,고교 정문 맞은편", "latitude": 37.475605, "longitude": 127.050377, "dist_to_subway": 1225.7807559362061 }, "geometry": { "type": "Point", "coordinates": [ 204386.325539925455814, 441492.426776807697024 ] } },
{ "type": "Feature", "properties": { "station_id": "ST-957", "address": "서울특별시 강남구 개포로 303", "address_detail": "10동 앞", "latitude": 37.481384, "longitude": 127.053917, "dist_to_subway": 746.57541216367179 }, "geometry": { "type": "Point", "coordinates": [ 204699.099076110636815, 442133.992157334927469 ] } },
{ "type": "Feature", "properties": { "station_id": "ST-956", "address": "서울특별시 강남구 도곡로 205", "address_detail": "도곡1동 주민센터 교차로", "latitude": 37.492809, "longitude": 127.041389, "dist_to_subway": 806.02517811182042 }, "geometry": { "type": "Point", "coordinates": [ 203590.484094072045991, 443401.483771949424408 ] } },
{ "type": "Feature", "properties": { "station_id": "ST-955", "address": "서울특별시 강남구 봉은사로 524", "address_detail": "삼성역 5~6번 출구", "latitude": 37.509121, "longitude": 127.062309, "dist_to_subway": 81.280291682507638 }, "geometry": { "type": "Point", "coordinates": [ 205439.367594200244639, 445212.90879298816435 ] } },
{ "type": "Feature", "properties": { "station_id": "ST-954", "address": "서울특별시 강남구 학동로 지하 346", "address_detail": "강남구청", "latitude": 37.51807, "longitude": 127.047119, "dist_to_subway": 527.75699836790045 }, "geometry": { "type": "Point", "coordinates": [ 204095.856099761469522, 446205.38306516589364 ] } },
{ "type": "Feature", "properties": { "station_id": "ST-953", "address": "서울특별시 강남구 영동대로 647", "address_detail": "청담역 2번출구", "latitude": 37.519787, "longitude": 127.056763, "dist_to_subway": 305.33347380488095 }, "geometry": { "type": "Point", "coordinates": [ 204948.32064481874113, 446396.406926164927427 ] } },
{ "type": "Feature", "properties": { "station_id": "ST-952", "address": "서울특별시 금천구 남부순환로 1428", "address_detail": "관악농협 문성지점", "latitude": 37.480721, "longitude": 126.909325, "dist_to_subway": 821.06289491990731 }, "geometry": { "type": "Point", "coordinates": [ 191910.137040035537211, 442063.109332603460643 ] } },
{ "type": "Feature", "properties": { "station_id": "ST-951", "address": "서울특별시 관악구 신림로 114", "address_detail": "서울신성초등학교", "latitude": 37.471165, "longitude": 126.937019, "dist_to_subway": 288.18051030263496 }, "geometry": { "type": "Point", "coordinates": [ 194358.914896789356135, 441000.474778442352545 ] } },
{ "type": "Feature", "properties": { "station_id": "ST-950", "address": "서울특별시 관악구 시흥대로 560", "address_detail": "조원동 미성아파트", "latitude": 37.483192, "longitude": 126.902031, "dist_to_subway": 236.83652484853343 }, "geometry": { "type": "Point", "coordinates": [ 191265.280335039977217, 442338.016412002325524 ] } },
{ "type": "Feature", "properties": { "station_id": "ST-95", "address": "서울특별시 마포구 성암로 지하184", "address_detail": "디지털미디어시티역 9번출구 앞", "latitude": 37.577469, "longitude": 126.897362, "dist_to_subway": 123.89732524586906 }, "geometry": { "type": "Point", "coordinates": [ 190863.912628256337484, 452802.132306670304388 ] } },
{ "type": "Feature", "properties": { "station_id": "ST-949", "address": "서울특별시 서초구 동작대로 204 청남빌딩", "address_detail": null, "latitude": 37.494743, "longitude": 126.983063, "dist_to_subway": 826.14345056515162 }, "geometry": { "type": "Point", "coordinates": [ 198432.487284814473242, 443615.547421358700376 ] } },
{ "type": "Feature", "properties": { "station_id": "ST-948", "address": "서울특별시 강북구 도봉로 196", "address_detail": "미아역 3,4번 출구 사이", "latitude": 37.62608, "longitude": 127.026482, "dist_to_subway": 78.921563460968514 }, "geometry": { "type": "Point", "coordinates": [ 202268.260566713754088, 458192.654370475385804 ] } },
{ "type": "Feature", "properties": { "station_id": "ST-947", "address": "서울특별시 성북구 보문로 168", "address_detail": "성북구청", "latitude": 37.589329, "longitude": 127.016434, "dist_to_subway": 348.3608643156316 }, "geometry": { "type": "Point", "coordinates": [ 201381.898353802796919, 454113.473017779819202 ] } },
{ "type": "Feature", "properties": { "station_id": "ST-946", "address": "서울특별시 중구 퇴계로 33", "address_detail": "서울역 서부교차로2", "latitude": 37.555367, "longitude": 126.968643, "dist_to_subway": 248.02510657332988 }, "geometry": { "type": "Point", "coordinates": [ 197159.643981572502526, 450344.457284828647971 ] } },
{ "type": "Feature", "properties": { "station_id": "ST-945", "address": "서울특별시 중구 만리재로 211", "address_detail": "서울역 서부교차로", "latitude": 37.556965, "longitude": 126.96859, "dist_to_subway": 217.60748919009072 }, "geometry": { "type": "Point", "coordinates": [ 197155.022983513918007, 450521.819367291289382 ] } },
{ "type": "Feature", "properties": { "station_id": "ST-945", "address": "서울특별시 중구 만리재로 211", "address_detail": "서울역 서부교차로", "latitude": 37.556965, "longitude": 126.96859, "dist_to_subway": 217.60748919009072 }, "geometry": { "type": "Point", "coordinates": [ 197155.022983513918007, 450521.819367291289382 ] } },
{ "type": "Feature", "properties": { "station_id": "ST-944", "address": "서울특별시 중구 퇴계로 212", "address_detail": "충무로역 1번출구", "latitude": 37.56139, "longitude": 126.995354, "dist_to_subway": 113.3564126563889 }, "geometry": { "type": "Point", "coordinates": [ 199519.894104469625745, 451012.454256118857302 ] } },
{ "type": "Feature", "properties": { "station_id": "ST-943", "address": "서울특별시 중구 을지로 지하 178", "address_detail": "을지로4가역 1번출구", "latitude": 37.566731, "longitude": 126.996605, "dist_to_subway": 108.13585946544826 }, "geometry": { "type": "Point", "coordinates": [ 199630.455601679219399, 451605.240832572686486 ] } },
{ "type": "Feature", "properties": { "station_id": "ST-942", "address": "서울특별시 중랑구 동일로 628", "address_detail": "하나은행", "latitude": 37.586372, "longitude": 127.080071, "dist_to_subway": 700.63178722114799 }, "geometry": { "type": "Point", "coordinates": [ 207002.638995021174196, 453788.072917977464385 ] } },
{ "type": "Feature", "properties": { "station_id": "ST-941", "address": "서울특별시 종로구 평창문화로 119", "address_detail": "일성아파트", "latitude": 37.608719, "longitude": 126.972862, "dist_to_subway": 3146.7842881705428 }, "geometry": { "type": "Point", "coordinates": [ 197534.244577120261965, 456265.847211899410468 ] } },
{ "type": "Feature", "properties": { "station_id": "ST-940", "address": "서울특별시 종로구 평창문화로 65", "address_detail": "평창동 주민센터", "latitude": 37.606274, "longitude": 126.968681, "dist_to_subway": 2915.5790467288184 }, "geometry": { "type": "Point", "coordinates": [ 197164.976527476683259, 455994.597594516410027 ] } },
{ "type": "Feature", "properties": { "station_id": "ST-94", "address": "서울특별시 마포구 매봉산로2길 16", "address_detail": "상암동주민센터 옆", "latitude": 37.57822, "longitude": 126.89447, "dist_to_subway": 307.97338755957816 }, "geometry": { "type": "Point", "coordinates": [ 190608.543428241682705, 452885.772521759441588 ] } },
{ "type": "Feature", "properties": { "station_id": "ST-939", "address": "서울특별시 종로구 진흥로 499", "address_detail": "신영동 삼거리", "latitude": 37.603992, "longitude": 126.961945, "dist_to_subway": 2308.7547515556539 }, "geometry": { "type": "Point", "coordinates": [ 196570.076260919100605, 455741.547894203802571 ] } },
{ "type": "Feature", "properties": { "station_id": "ST-938", "address": "서울특별시 종로구 홍지문길 1", "address_detail": "상명대 입구", "latitude": 37.600128, "longitude": 126.957832, "dist_to_subway": 1748.4696234161831 }, "geometry": { "type": "Point", "coordinates": [ 196206.684859467786737, 455312.84398999606492 ] } },
{ "type": "Feature", "properties": { "station_id": "ST-937", "address": "서울특별시 강남구 광평로 144", "address_detail": "청소년 수련관 수영장 앞", "latitude": 37.483879, "longitude": 127.089027, "dist_to_subway": 410.70939587801092 }, "geometry": { "type": "Point", "coordinates": [ 207804.255350618594093, 442413.213391727185808 ] } },
{ "type": "Feature", "properties": { "station_id": "ST-936", "address": "서울특별시 구로구 시흥대로 551", "address_detail": "디지털입구 교차로", "latitude": 37.482883, "longitude": 126.901039, "dist_to_subway": 266.41468296881857 }, "geometry": { "type": "Point", "coordinates": [ 191177.505292924382957, 442303.81438316241838 ] } },
{ "type": "Feature", "properties": { "station_id": "ST-935", "address": "서울특별시 서초구 동작대로 138 소방빌딩", "address_detail": null, "latitude": 37.488972, "longitude": 126.982719, "dist_to_subway": 307.51925792340842 }, "geometry": { "type": "Point", "coordinates": [ 198401.938663451146567, 442975.042893583304249 ] } },
{ "type": "Feature", "properties": { "station_id": "ST-934", "address": "서울특별시 관악구 신사로 7", "address_detail": "동작관악견인차량보관소", "latitude": 37.484661, "longitude": 126.9039, "dist_to_subway": 230.99632058202627 }, "geometry": { "type": "Point", "coordinates": [ 191430.754960883758031, 442500.884309563960414 ] } },
{ "type": "Feature", "properties": { "station_id": "ST-933", "address": "서울특별시 송파구 백제고분로 188", "address_detail": "잠실포스코더샵", "latitude": 37.5042, "longitude": 127.087532, "dist_to_subway": 73.930350460759414 }, "geometry": { "type": "Point", "coordinates": [ 207669.968990332388785, 444668.475875055242795 ] } },
{ "type": "Feature", "properties": { "station_id": "ST-932", "address": "서울특별시 동작구 현충로 지하 90", "address_detail": "동작구 현충로 104", "latitude": 37.508587, "longitude": 126.963493, "dist_to_subway": 27.818842698045778 }, "geometry": { "type": "Point", "coordinates": [ 196702.486657375586219, 445152.584193107788451 ] } },
{ "type": "Feature", "properties": { "station_id": "ST-931", "address": "서울특별시 성북구 동소문로13길 38", "address_detail": "돈암초교", "latitude": 37.591694, "longitude": 127.012497, "dist_to_subway": 362.91971637061937 }, "geometry": { "type": "Point", "coordinates": [ 201034.148998050543014, 454375.915636771009304 ] } },
{ "type": "Feature", "properties": { "station_id": "ST-930", "address": "서울특별시 송파구 오금로 지하 499", "address_detail": "3번출구", "latitude": 37.493343, "longitude": 127.14473, "dist_to_subway": 57.694192594743541 }, "geometry": { "type": "Point", "coordinates": [ 212729.321216877258848, 443469.638153661682736 ] } },
{ "type": "Feature", "properties": { "station_id": "ST-93", "address": "서울특별시 은평구 수색로 지하175", "address_detail": "디지털미디어시티역 2번출구 앞", "latitude": 37.575069, "longitude": 126.899918, "dist_to_subway": 173.86659845515661 }, "geometry": { "type": "Point", "coordinates": [ 191089.408274089510087, 452535.510440759593621 ] } },
{ "type": "Feature", "properties": { "station_id": "ST-929", "address": "서울특별시 서초구 양재대로2길 8", "address_detail": "우면동 785", "latitude": 37.459953, "longitude": 127.024742, "dist_to_subway": 1647.2288981274448 }, "geometry": { "type": "Point", "coordinates": [ 202119.211950902245007, 439754.385154260962736 ] } },
{ "type": "Feature", "properties": { "station_id": "ST-928", "address": "서울특별시 서초구 신반포로16길 30", "address_detail": "서초구 반포동 15-2", "latitude": 37.501713, "longitude": 126.995476, "dist_to_subway": 193.02862180159457 }, "geometry": { "type": "Point", "coordinates": [ 199530.247821770288283, 444388.990352403721772 ] } },
{ "type": "Feature", "properties": { "station_id": "ST-927", "address": "서울특별시 서초구 고무래로 34", "address_detail": "서초구 반포동 131-1", "latitude": 37.502636, "longitude": 127.012314, "dist_to_subway": 313.32615960326342 }, "geometry": { "type": "Point", "coordinates": [ 201019.121766053052852, 444491.469890549196862 ] } },
{ "type": "Feature", "properties": { "station_id": "ST-926", "address": "서울특별시 서초구 헌릉로 226", "address_detail": "서초구 내곡동 184-27", "latitude": 37.454407, "longitude": 127.064926, "dist_to_subway": 1144.337606941622 }, "geometry": { "type": "Point", "coordinates": [ 205674.840027367550647, 439140.48514997062739 ] } },
{ "type": "Feature", "properties": { "station_id": "ST-925", "address": "서울특별시 서초구 청계산로 지하 179", "address_detail": "서초구 신원동 270-6", "latitude": 37.447659, "longitude": 127.055016, "dist_to_subway": 75.89601266555583 }, "geometry": { "type": "Point", "coordinates": [ 204798.429393990460085, 438391.000691506604198 ] } },
{ "type": "Feature", "properties": { "station_id": "ST-924", "address": "서울특별시 동작구 동작대로 지하 3", "address_detail": "동작구 사당동 1129", "latitude": 37.476891, "longitude": 126.980576, "dist_to_subway": 94.160910948479881 }, "geometry": { "type": "Point", "coordinates": [ 198212.115352486493066, 441634.241412710340228 ] } },
{ "type": "Feature", "properties": { "station_id": "ST-923", "address": "서울특별시 동작구 사당로 지하 310", "address_detail": "동작구 사당동 144-4", "latitude": 37.485508, "longitude": 126.981621, "dist_to_subway": 34.657055647961158 }, "geometry": { "type": "Point", "coordinates": [ 198304.751220633886987, 442590.601438417914324 ] } },
{ "type": "Feature", "properties": { "station_id": "ST-922", "address": "서울특별시 동작구 성대로14길 46", "address_detail": "동작구 상도동 517", "latitude": 37.496799, "longitude": 126.952873, "dist_to_subway": 119.77550745285207 }, "geometry": { "type": "Point", "coordinates": [ 195762.832101256004535, 443844.689943383797072 ] } },
{ "type": "Feature", "properties": { "station_id": "ST-921", "address": "서울특별시 동작구 상도로 지하 378", "address_detail": "동작구 상도동 514", "latitude": 37.496094, "longitude": 126.954071, "dist_to_subway": 23.170959664686794 }, "geometry": { "type": "Point", "coordinates": [ 195868.731737275724299, 443766.389411800308153 ] } },
{ "type": "Feature", "properties": { "station_id": "ST-920", "address": "서울특별시 구로구 경인로40길 47", "address_detail": "구로구 개봉동 416-99", "latitude": 37.494995, "longitude": 126.858253, "dist_to_subway": 133.8114811726924 }, "geometry": { "type": "Point", "coordinates": [ 187395.283302856580121, 443652.996817382867448 ] } },
{ "type": "Feature", "properties": { "station_id": "ST-92", "address": "서울특별시 마포구 매봉산로 8", "address_detail": "상암월드컵파크 3단지 후문", "latitude": 37.571476, "longitude": 126.889687, "dist_to_subway": 876.05105943264732 }, "geometry": { "type": "Point", "coordinates": [ 190185.151594033581205, 452137.751996697159484 ] } },
{ "type": "Feature", "properties": { "station_id": "ST-919", "address": "서울특별시 구로구 경인로 445", "address_detail": "구로구 고척동 63-3", "latitude": 37.499889, "longitude": 126.867699, "dist_to_subway": 442.45742545206059 }, "geometry": { "type": "Point", "coordinates": [ 188231.385429137153551, 444194.942622153612319 ] } },
{ "type": "Feature", "properties": { "station_id": "ST-918", "address": "서울특별시 구로구 도림천로 351", "address_detail": "구로구 구로동 72-9", "latitude": 37.494404, "longitude": 126.894447, "dist_to_subway": 135.80760223182224 }, "geometry": { "type": "Point", "coordinates": [ 190595.920906626561191, 443583.14718111907132 ] } },
{ "type": "Feature", "properties": { "station_id": "ST-917", "address": "서울특별시 금천구 벚꽃로 309", "address_detail": "가산동 60-35", "latitude": 37.480148, "longitude": 126.883781, "dist_to_subway": 101.71572322569251 }, "geometry": { "type": "Point", "coordinates": [ 189650.71802925656084, 442002.031797407777049 ] } },
{ "type": "Feature", "properties": { "station_id": "ST-916", "address": "서울특별시 도봉구 도봉로 683", "address_detail": "방학동 726-92", "latitude": 37.665665, "longitude": 127.042671, "dist_to_subway": 248.18270561074982 }, "geometry": { "type": "Point", "coordinates": [ 203695.454326376755489, 462586.725112413405441 ] } },
{ "type": "Feature", "properties": { "station_id": "ST-915", "address": "서울특별시 노원구 동일로 지하 1662", "address_detail": "노원구 상계동 1263", "latitude": 37.676941, "longitude": 127.055099, "dist_to_subway": 102.67474580836199 }, "geometry": { "type": "Point", "coordinates": [ 204791.267230431374628, 463838.815736374934204 ] } },
{ "type": "Feature", "properties": { "station_id": "ST-914", "address": "서울특별시 노원구 상계로 182", "address_detail": "노원구 상계동 173-19", "latitude": 37.66, "longitude": 127.072968, "dist_to_subway": 111.07150673241182 }, "geometry": { "type": "Point", "coordinates": [ 206369.051478877605405, 461959.565675160032697 ] } },
{ "type": "Feature", "properties": { "station_id": "ST-913", "address": "서울특별시 노원구 석계로 98-2", "address_detail": "노원구 월계동 412-1", "latitude": 37.622662, "longitude": 127.061897, "dist_to_subway": 107.79964717711256 }, "geometry": { "type": "Point", "coordinates": [ 205394.844625774334418, 457814.710781462141313 ] } },
{ "type": "Feature", "properties": { "station_id": "ST-912", "address": "서울특별시 중랑구 면목로 456", "address_detail": "중랑구 면목동 282-4", "latitude": 37.592541, "longitude": 127.086739, "dist_to_subway": 348.86660947716825 }, "geometry": { "type": "Point", "coordinates": [ 207590.963824075413868, 454473.281548186263535 ] } },
{ "type": "Feature", "properties": { "station_id": "ST-911", "address": "서울특별시 성북구 월곡로 지하 107", "address_detail": "성북구 하월곡동 37-4", "latitude": 37.601841, "longitude": 127.041718, "dist_to_subway": 21.282730127916423 }, "geometry": { "type": "Point", "coordinates": [ 203614.405145215365337, 455502.832006457960233 ] } },
{ "type": "Feature", "properties": { "station_id": "ST-910", "address": "서울특별시 성북구 월곡로 지하 107", "address_detail": "성북구 하월곡동 37-4", "latitude": 37.602627, "longitude": 127.041634, "dist_to_subway": 76.055111769628084 }, "geometry": { "type": "Point", "coordinates": [ 203606.950180757528869, 455590.06688514346024 ] } },
{ "type": "Feature", "properties": { "station_id": "ST-91", "address": "서울특별시 마포구 상암동 1718", "address_detail": null, "latitude": 37.575657, "longitude": 126.890793, "dist_to_subway": 705.37376589860605 }, "geometry": { "type": "Point", "coordinates": [ 190283.404493302368792, 452601.682954550080467 ] } },
{ "type": "Feature", "properties": { "station_id": "ST-909", "address": "서울특별시 송파구 올림픽로4길 15 아시아선수촌아파트", "address_detail": null, "latitude": 37.506779, "longitude": 127.07917, "dist_to_subway": 575.78420385814252 }, "geometry": { "type": "Point", "coordinates": [ 206930.354484768526163, 444954.071216413693037 ] } },
{ "type": "Feature", "properties": { "station_id": "ST-908", "address": "서울특별시 송파구 위례성대로 114", "address_detail": "송파구 방이동 75", "latitude": 37.513962, "longitude": 127.121674, "dist_to_subway": 531.46419686839295 }, "geometry": { "type": "Point", "coordinates": [ 210687.463691120094154, 445755.249073828745168 ] } },
{ "type": "Feature", "properties": { "station_id": "ST-907", "address": "서울특별시 송파구 법원로 101", "address_detail": "문정동 627", "latitude": 37.478821, "longitude": 127.123512, "dist_to_subway": 237.322738385496 }, "geometry": { "type": "Point", "coordinates": [ 210855.015494981256779, 441855.231054383853916 ] } },
{ "type": "Feature", "properties": { "station_id": "ST-906", "address": "서울특별시 송파구 송파대로 지하 82", "address_detail": "장지동 201-5", "latitude": 37.477509, "longitude": 127.126328, "dist_to_subway": 133.0721997094374 }, "geometry": { "type": "Point", "coordinates": [ 211104.287011501000961, 441709.941731790837366 ] } },
{ "type": "Feature", "properties": { "station_id": "ST-905", "address": "서울특별시 송파구 법원로 101", "address_detail": "문정동 619", "latitude": 37.479465, "longitude": 127.125328, "dist_to_subway": 113.92665576900379 }, "geometry": { "type": "Point", "coordinates": [ 211015.548860828188481, 441926.916717019455973 ] } },
{ "type": "Feature", "properties": { "station_id": "ST-904", "address": "서울특별시 송파구 법원로 101", "address_detail": "문정동 619", "latitude": 37.481537, "longitude": 127.122124, "dist_to_subway": 477.84621681428251 }, "geometry": { "type": "Point", "coordinates": [ 210731.859176483354531, 442156.51531261234777 ] } },
{ "type": "Feature", "properties": { "station_id": "ST-903", "address": "서울특별시 송파구 법원로 101", "address_detail": "문정동 346-2", "latitude": 37.484531, "longitude": 127.120163, "dist_to_subway": 253.60535753082218 }, "geometry": { "type": "Point", "coordinates": [ 210557.99398807430407, 442488.592081113019958 ] } },
{ "type": "Feature", "properties": { "station_id": "ST-902", "address": "서울특별시 송파구 문정동 398-1", "address_detail": null, "latitude": 37.481632, "longitude": 127.119164, "dist_to_subway": 553.83922001126484 }, "geometry": { "type": "Point", "coordinates": [ 210470.039997662883252, 442166.72792588028824 ] } },
{ "type": "Feature", "properties": { "station_id": "ST-901", "address": "서울특별시 송파구 새말로 62", "address_detail": "송파구 문정동 398-5", "latitude": 37.481239, "longitude": 127.119797, "dist_to_subway": 565.35404802034066 }, "geometry": { "type": "Point", "coordinates": [ 210526.082283512107097, 442123.179917964269407 ] } },
{ "type": "Feature", "properties": { "station_id": "ST-900", "address": "서울특별시 송파구 새말로 62", "address_detail": "송파구 문정동 305-24", "latitude": 37.480576, "longitude": 127.118568, "dist_to_subway": 681.34276371703845 }, "geometry": { "type": "Point", "coordinates": [ 210417.470761521282839, 442049.459279720438644 ] } },
{ "type": "Feature", "properties": { "station_id": "ST-90", "address": "서울특별시 마포구 월드컵북로 366", "address_detail": "DMC홍보관", "latitude": 37.577995, "longitude": 126.891472, "dist_to_subway": 483.2364341469405 }, "geometry": { "type": "Point", "coordinates": [ 190343.689180036541075, 452861.1058371719555 ] } },
{ "type": "Feature", "properties": { "station_id": "ST-9", "address": "서울특별시 마포구 월드컵북로 35", "address_detail": "449-28", "latitude": 37.55751, "longitude": 126.918503, "dist_to_subway": 466.79850120525873 }, "geometry": { "type": "Point", "coordinates": [ 192729.441124726057751, 450585.037693832186051 ] } },
{ "type": "Feature", "properties": { "station_id": "ST-899", "address": "서울특별시 송파구 정의로 30", "address_detail": "송파구 문정동 396-3", "latitude": 37.480843, "longitude": 127.118011, "dist_to_subway": 683.42729994725516 }, "geometry": { "type": "Point", "coordinates": [ 210368.16794912685873, 442079.031884305470157 ] } },
{ "type": "Feature", "properties": { "station_id": "ST-898", "address": "서울특별시 송파구 법원로 101", "address_detail": "송파구 문정동 373", "latitude": 37.483761, "longitude": 127.117081, "dist_to_subway": 532.65571009150392 }, "geometry": { "type": "Point", "coordinates": [ 210285.513100691576255, 442402.792531840561423 ] } },
{ "type": "Feature", "properties": { "station_id": "ST-897", "address": "서울특별시 송파구 동남로 203", "address_detail": "송파구 가락동 195-1", "latitude": 37.49567, "longitude": 127.130592, "dist_to_subway": 459.64616598298318 }, "geometry": { "type": "Point", "coordinates": [ 211478.686172200046713, 443726.098847310175188 ] } },
{ "type": "Feature", "properties": { "station_id": "ST-896", "address": "서울특별시 송파구 거마로 51", "address_detail": "송파구 거여동 133-60", "latitude": 37.4977, "longitude": 127.146202, "dist_to_subway": 541.31177879612301 }, "geometry": { "type": "Point", "coordinates": [ 212858.752921870531281, 443953.411692560126539 ] } },
{ "type": "Feature", "properties": { "station_id": "ST-895", "address": "서울특별시 송파구 오금로 지하 499", "address_detail": "송파구 거여동 20-14", "latitude": 37.493126, "longitude": 127.143822, "dist_to_subway": 29.09998918789724 }, "geometry": { "type": "Point", "coordinates": [ 212649.059480498486664, 443445.432008555100765 ] } },
{ "type": "Feature", "properties": { "station_id": "ST-894", "address": "서울특별시 송파구 올림픽로35길 16", "address_detail": "송파구 신천동 20-50", "latitude": 37.520077, "longitude": 127.112366, "dist_to_subway": 296.11776848415656 }, "geometry": { "type": "Point", "coordinates": [ 209863.746241200366057, 446432.932483974087518 ] } },
{ "type": "Feature", "properties": { "station_id": "ST-893", "address": "서울특별시 송파구 마천로57길 지하 7", "address_detail": "송파구 마천동 183-99", "latitude": 37.495461, "longitude": 127.15329, "dist_to_subway": 68.983954060368532 }, "geometry": { "type": "Point", "coordinates": [ 213485.937972130283015, 443705.896637175348587 ] } },
{ "type": "Feature", "properties": { "station_id": "ST-892", "address": "서울특별시 송파구 양재대로 지하 1127", "address_detail": "송파구 방이동 217-2", "latitude": 37.508968, "longitude": 127.125839, "dist_to_subway": 28.765872933710089 }, "geometry": { "type": "Point", "coordinates": [ 211056.422569701127941, 445201.452244429441635 ] } },
{ "type": "Feature", "properties": { "station_id": "ST-891", "address": "서울특별시 송파구 올림픽로 293-19", "address_detail": "송파구 신천동 28", "latitude": 37.513126, "longitude": 127.10096, "dist_to_subway": 72.407751606673514 }, "geometry": { "type": "Point", "coordinates": [ 208856.242493868310703, 445660.325920068833511 ] } },
{ "type": "Feature", "properties": { "station_id": "ST-890", "address": "서울특별시 서초구 매헌로 16", "address_detail": "양재동 217-3", "latitude": 37.463322, "longitude": 127.036041, "dist_to_subway": 772.93051949417304 }, "geometry": { "type": "Point", "coordinates": [ 203118.735451865941286, 440128.607510904490482 ] } },
{ "type": "Feature", "properties": { "station_id": "ST-89", "address": "서울특별시 마포구 성산동 421-10", "address_detail": null, "latitude": 37.57048, "longitude": 126.898895, "dist_to_subway": 111.07813142414993 }, "geometry": { "type": "Point", "coordinates": [ 190998.482663436821895, 452026.27841984416591 ] } },
{ "type": "Feature", "properties": { "station_id": "ST-889", "address": "서울특별시 서초구 태봉로 131", "address_detail": "서초구 우면동 23-14", "latitude": 37.4692, "longitude": 127.029007, "dist_to_subway": 837.68766451523038 }, "geometry": { "type": "Point", "coordinates": [ 202496.251327177946223, 440780.78606447140919 ] } },
{ "type": "Feature", "properties": { "station_id": "ST-888", "address": "서울특별시 관악구 인헌3가길 8", "address_detail": "봉천동 1642-4", "latitude": 37.473881, "longitude": 126.967361, "dist_to_subway": 468.81259758497794 }, "geometry": { "type": "Point", "coordinates": [ 197043.082426181645133, 441300.511004363710526 ] } },
{ "type": "Feature", "properties": { "station_id": "ST-887", "address": "서울특별시 관악구 남부순환로 지하 1928", "address_detail": "봉천동 1693-39", "latitude": 37.477028, "longitude": 126.963394, "dist_to_subway": 28.596795066325715 }, "geometry": { "type": "Point", "coordinates": [ 196692.31506315007573, 441649.923271509935148 ] } },
{ "type": "Feature", "properties": { "station_id": "ST-886", "address": "서울특별시 관악구 신림로 67", "address_detail": "관악구 신림동 226-2", "latitude": 37.470696, "longitude": 126.9422, "dist_to_subway": 309.01501422261464 }, "geometry": { "type": "Point", "coordinates": [ 194817.194237617659383, 440948.120449218316935 ] } },
{ "type": "Feature", "properties": { "station_id": "ST-885", "address": "서울특별시 관악구 신림로 137", "address_detail": "관악구 신림동 289-3", "latitude": 37.472294, "longitude": 126.933411, "dist_to_subway": 56.572056418789913 }, "geometry": { "type": "Point", "coordinates": [ 194039.841215561260469, 441126.004255998821463 ] } },
{ "type": "Feature", "properties": { "station_id": "ST-884", "address": "서울특별시 관악구 관악로 217", "address_detail": "동진빌딩 앞", "latitude": 37.484257, "longitude": 126.954697, "dist_to_subway": 376.29158396313761 }, "geometry": { "type": "Point", "coordinates": [ 195923.43606478109723, 442452.599472713307478 ] } },
{ "type": "Feature", "properties": { "station_id": "ST-883", "address": "서울특별시 관악구 남부순환로 1369", "address_detail": "관악구 신림동 1674-8", "latitude": 37.479916, "longitude": 126.90284, "dist_to_subway": 607.27153524067307 }, "geometry": { "type": "Point", "coordinates": [ 191336.452144883398432, 441974.345609398907982 ] } },
{ "type": "Feature", "properties": { "station_id": "ST-882", "address": "서울특별시 관악구 봉천동 962", "address_detail": null, "latitude": 37.486202, "longitude": 126.935814, "dist_to_subway": 566.16137912439945 }, "geometry": { "type": "Point", "coordinates": [ 194253.484780694474466, 442669.468415081384592 ] } },
{ "type": "Feature", "properties": { "station_id": "ST-881", "address": "서울특별시 서초구 양재대로2길 74", "address_detail": "우면동 754", "latitude": 37.455799, "longitude": 127.016289, "dist_to_subway": 1319.5021605264546 }, "geometry": { "type": "Point", "coordinates": [ 201371.418915656540776, 439293.193715344590601 ] } },
{ "type": "Feature", "properties": { "station_id": "ST-880", "address": "서울특별시 서초구 양재대로2길 74", "address_detail": "우면동 754", "latitude": 37.456234, "longitude": 127.019348, "dist_to_subway": 1590.837450221102 }, "geometry": { "type": "Point", "coordinates": [ 201642.064761303307023, 439341.519943082996178 ] } },
{ "type": "Feature", "properties": { "station_id": "ST-88", "address": "서울특별시 마포구 상암동 1691", "address_detail": null, "latitude": 37.577393, "longitude": 126.887474, "dist_to_subway": 814.34692101633391 }, "geometry": { "type": "Point", "coordinates": [ 189990.448118640837492, 452794.71131887473166 ] } },
{ "type": "Feature", "properties": { "station_id": "ST-879", "address": "서울특별시 서초구 바우뫼로 43", "address_detail": "서초구 우면동 68-3", "latitude": 37.471928, "longitude": 127.02684, "dist_to_subway": 1045.9634186981284 }, "geometry": { "type": "Point", "coordinates": [ 202304.471750401193276, 441083.505914207722526 ] } },
{ "type": "Feature", "properties": { "station_id": "ST-878", "address": "서울특별시 동작구 사당로 지하 218", "address_detail": "동작구 사당동 712-8", "latitude": 37.48447, "longitude": 126.971428, "dist_to_subway": 20.991262001493514 }, "geometry": { "type": "Point", "coordinates": [ 197403.212361017358489, 442475.635523151606321 ] } },
{ "type": "Feature", "properties": { "station_id": "ST-877", "address": "서울특별시 동작구 노량진로 191", "address_detail": "동작구 노량진동 152-7", "latitude": 37.513359, "longitude": 126.948059, "dist_to_subway": 459.46073552748533 }, "geometry": { "type": "Point", "coordinates": [ 195338.174318455858156, 445682.882992482860573 ] } },
{ "type": "Feature", "properties": { "station_id": "ST-876", "address": "서울특별시 구로구 오리로 지하 1154", "address_detail": "구로구 오류동 174-6", "latitude": 37.486385, "longitude": 126.839211, "dist_to_subway": 52.174326275353735 }, "geometry": { "type": "Point", "coordinates": [ 185709.710857400641544, 442700.124142483866308 ] } },
{ "type": "Feature", "properties": { "station_id": "ST-875", "address": "서울특별시 구로구 오리로 1102-10", "address_detail": "구로구 천왕동 257-82", "latitude": 37.482105, "longitude": 126.845726, "dist_to_subway": 798.58185753403234 }, "geometry": { "type": "Point", "coordinates": [ 186285.126527077984065, 442224.123201983864419 ] } },
{ "type": "Feature", "properties": { "station_id": "ST-874", "address": "서울특별시 구로구 천왕로 29 천왕 이펜하우스 4단지", "address_detail": null, "latitude": 37.480705, "longitude": 126.838959, "dist_to_subway": 658.73977403778372 }, "geometry": { "type": "Point", "coordinates": [ 185686.335059882432688, 442069.752146169834305 ] } },
{ "type": "Feature", "properties": { "station_id": "ST-873", "address": "서울특별시 구로구 구로중앙로 174", "address_detail": "구로동 603-26", "latitude": 37.503117, "longitude": 126.880386, "dist_to_subway": 139.97576345146877 }, "geometry": { "type": "Point", "coordinates": [ 189353.711645878123818, 444551.692672977980692 ] } },
{ "type": "Feature", "properties": { "station_id": "ST-872", "address": "서울특별시 구로구 경인로3길 지하 64", "address_detail": "구로구 온수동 119-4", "latitude": 37.49279, "longitude": 126.824524, "dist_to_subway": 55.410580810694178 }, "geometry": { "type": "Point", "coordinates": [ 184412.09493479997036, 443413.342064540658612 ] } },
{ "type": "Feature", "properties": { "station_id": "ST-871", "address": "서울특별시 구로구 서해안로 2340-10", "address_detail": "구로구 오류동 135-2", "latitude": 37.493671, "longitude": 126.843704, "dist_to_subway": 174.87436678810298 }, "geometry": { "type": "Point", "coordinates": [ 186108.437656477413839, 443508.106247812742367 ] } },
{ "type": "Feature", "properties": { "station_id": "ST-870", "address": "서울특별시 구로구 경인로40길 47", "address_detail": "구로구 개봉동 202-42", "latitude": 37.494282, "longitude": 126.859215, "dist_to_subway": 53.759449274891715 }, "geometry": { "type": "Point", "coordinates": [ 187480.235396169940941, 443573.733384191233199 ] } },
{ "type": "Feature", "properties": { "station_id": "ST-87", "address": "서울특별시 마포구 월드컵로 240", "address_detail": "홈플러스 월드컵경기장점", "latitude": 37.56842, "longitude": 126.899429, "dist_to_subway": 123.96159756556682 }, "geometry": { "type": "Point", "coordinates": [ 191045.40946241011261, 451797.589061834441964 ] } },
{ "type": "Feature", "properties": { "station_id": "ST-869", "address": "서울특별시 노원구 동일로 지하 1662", "address_detail": "노원구 상계동 1132-9", "latitude": 37.67625, "longitude": 127.055504, "dist_to_subway": 178.36709649899379 }, "geometry": { "type": "Point", "coordinates": [ 204827.039320417155977, 463762.141242843586951 ] } },
{ "type": "Feature", "properties": { "station_id": "ST-868", "address": "서울특별시 노원구 동일로 1652", "address_detail": "노원구 상계동 1118-9", "latitude": 37.673618, "longitude": 127.055252, "dist_to_subway": 469.74807375394522 }, "geometry": { "type": "Point", "coordinates": [ 204804.975823664077325, 463469.999450284463819 ] } },
{ "type": "Feature", "properties": { "station_id": "ST-867", "address": "서울특별시 노원구 노원로22길 1", "address_detail": "노원구 중계1동 360-18", "latitude": 37.648209, "longitude": 127.070221, "dist_to_subway": 659.35383221456163 }, "geometry": { "type": "Point", "coordinates": [ 206127.622512435686076, 460650.691078243078664 ] } },
{ "type": "Feature", "properties": { "station_id": "ST-866", "address": "서울특별시 노원구 월계로 378", "address_detail": "노원구 월계동 321-4", "latitude": 37.631622, "longitude": 127.061615, "dist_to_subway": 302.54434479770555 }, "geometry": { "type": "Point", "coordinates": [ 205369.312530391267501, 458809.168488658848219 ] } },
{ "type": "Feature", "properties": { "station_id": "ST-865", "address": "서울특별시 강북구 삼양로155길 9-7", "address_detail": "우이동 5-10", "latitude": 37.661648, "longitude": 127.013344, "dist_to_subway": 150.85648249402564 }, "geometry": { "type": "Point", "coordinates": [ 201107.976184986182489, 462140.143239915720187 ] } },
{ "type": "Feature", "properties": { "station_id": "ST-864", "address": "서울특별시 도봉구 삼양로 574", "address_detail": "우이동 100-13", "latitude": 37.654472, "longitude": 127.012756, "dist_to_subway": 178.84060932522206 }, "geometry": { "type": "Point", "coordinates": [ 201056.18929136657971, 461343.665883577021305 ] } },
{ "type": "Feature", "properties": { "station_id": "ST-863", "address": "서울특별시 강북구 도봉로89길 13", "address_detail": "수유동 192-59", "latitude": 37.639671, "longitude": 127.0252, "dist_to_subway": 185.72738056074877 }, "geometry": { "type": "Point", "coordinates": [ 202154.708459090092219, 459701.096427850541659 ] } },
{ "type": "Feature", "properties": { "station_id": "ST-862", "address": "서울특별시 강북구 한천로150길 67", "address_detail": "수유동 694-2", "latitude": 37.644737, "longitude": 127.026566, "dist_to_subway": 745.61459901997853 }, "geometry": { "type": "Point", "coordinates": [ 202275.123170891427435, 460263.406315214757342 ] } },
{ "type": "Feature", "properties": { "station_id": "ST-861", "address": "서울특별시 강북구 오현로31길 85-7", "address_detail": "번동 656-2", "latitude": 37.631123, "longitude": 127.036034, "dist_to_subway": 1015.6135649717452 }, "geometry": { "type": "Point", "coordinates": [ 203111.279319240653422, 458752.646048066846561 ] } },
{ "type": "Feature", "properties": { "station_id": "ST-860", "address": "서울특별시 강북구 오현로25마길 27", "address_detail": "번동 230", "latitude": 37.633717, "longitude": 127.035515, "dist_to_subway": 988.50256905300523 }, "geometry": { "type": "Point", "coordinates": [ 203065.362210920284269, 459040.538570786244236 ] } },
{ "type": "Feature", "properties": { "station_id": "ST-86", "address": "서울특별시 마포구 월드컵북로 396", "address_detail": "누리꿈스퀘어 옆", "latitude": 37.579399, "longitude": 126.88916, "dist_to_subway": 591.90736325208536 }, "geometry": { "type": "Point", "coordinates": [ 190139.646959313831758, 453017.176797702035401 ] } },
{ "type": "Feature", "properties": { "station_id": "ST-859", "address": "서울특별시 강북구 한천로 935", "address_detail": "번동 386-17", "latitude": 37.634377, "longitude": 127.035751, "dist_to_subway": 973.8655084898827 }, "geometry": { "type": "Point", "coordinates": [ 203086.1667968085967, 459113.799865093955304 ] } },
{ "type": "Feature", "properties": { "station_id": "ST-857", "address": "서울특별시 중랑구 동일로 지하 797", "address_detail": "중랑구 중화동 50-3", "latitude": 37.602077, "longitude": 127.079582, "dist_to_subway": 59.047907973993311 }, "geometry": { "type": "Point", "coordinates": [ 206957.999712860531872, 455531.130984011222608 ] } },
{ "type": "Feature", "properties": { "station_id": "ST-856", "address": "서울특별시 중랑구 봉화산로 194", "address_detail": "중랑구 신내동 561", "latitude": 37.606499, "longitude": 127.095451, "dist_to_subway": 832.27677093242778 }, "geometry": { "type": "Point", "coordinates": [ 208358.831594672228675, 456023.211849623534363 ] } },
{ "type": "Feature", "properties": { "station_id": "ST-855", "address": "서울특별시 중랑구 봉화산로 179", "address_detail": "중랑구 신내동 662-1", "latitude": 37.606152, "longitude": 127.092598, "dist_to_subway": 735.27740020193573 }, "geometry": { "type": "Point", "coordinates": [ 208106.947748481179588, 455984.450138267828152 ] } },
{ "type": "Feature", "properties": { "station_id": "ST-854", "address": "서울특별시 중랑구 동일로 778", "address_detail": "동일로 778", "latitude": 37.599957, "longitude": 127.080002, "dist_to_subway": 294.54217900809584 }, "geometry": { "type": "Point", "coordinates": [ 206995.284741279494483, 455295.863347980310209 ] } },
{ "type": "Feature", "properties": { "station_id": "ST-853", "address": "서울특별시 중랑구 숙선옹주로 66", "address_detail": "중랑구 묵동 20-3", "latitude": 37.616024, "longitude": 127.085968, "dist_to_subway": 462.40002792571147 }, "geometry": { "type": "Point", "coordinates": [ 207520.527491317596287, 457079.59699201741023 ] } },
{ "type": "Feature", "properties": { "station_id": "ST-852", "address": "서울특별시 중랑구 용마산로 지하 227", "address_detail": "중랑구 면목동 1381", "latitude": 37.574299, "longitude": 127.086914, "dist_to_subway": 74.226665135267467 }, "geometry": { "type": "Point", "coordinates": [ 207608.259658048511483, 452448.624156026635319 ] } },
{ "type": "Feature", "properties": { "station_id": "ST-851", "address": "서울특별시 중랑구 면목로 460", "address_detail": "중랑구 상봉동 395-6", "latitude": 37.593231, "longitude": 127.086914, "dist_to_subway": 281.056408966898 }, "geometry": { "type": "Point", "coordinates": [ 207606.349663754546782, 454549.878500685037579 ] } },
{ "type": "Feature", "properties": { "station_id": "ST-850", "address": "서울특별시 중랑구 면목로 480", "address_detail": "중랑구 상봉동 160-22", "latitude": 37.595219, "longitude": 127.085999, "dist_to_subway": 46.940991968228566 }, "geometry": { "type": "Point", "coordinates": [ 207525.341940818703733, 454770.453062226122711 ] } },
{ "type": "Feature", "properties": { "station_id": "ST-85", "address": "서울특별시 마포구 월드컵북로47길 10", "address_detail": "1", "latitude": 37.566246, "longitude": 126.896179, "dist_to_subway": 457.10261918319168 }, "geometry": { "type": "Point", "coordinates": [ 190758.016261969489278, 451556.615254471427761 ] } },
{ "type": "Feature", "properties": { "station_id": "ST-849", "address": "서울특별시 중랑구 면목로 325", "address_detail": null, "latitude": 37.58099, "longitude": 127.088242, "dist_to_subway": 23.411246941771928 }, "geometry": { "type": "Point", "coordinates": [ 207724.887747769709677, 453191.361972797603812 ] } },
{ "type": "Feature", "properties": { "station_id": "ST-848", "address": "서울특별시 중랑구 동일로 지하 901", "address_detail": "중랑구 묵동 189-5", "latitude": 37.610722, "longitude": 127.077477, "dist_to_subway": 23.843128369077764 }, "geometry": { "type": "Point", "coordinates": [ 206771.34008903594804, 456490.486943894939031 ] } },
{ "type": "Feature", "properties": { "station_id": "ST-847", "address": "서울특별시 중랑구 공릉로 12", "address_detail": "중랑구 묵동 189-4", "latitude": 37.611511, "longitude": 127.077888, "dist_to_subway": 98.067176780289827 }, "geometry": { "type": "Point", "coordinates": [ 206807.558291265915614, 456578.08754865656374 ] } },
{ "type": "Feature", "properties": { "station_id": "ST-846", "address": "서울특별시 성북구 솔샘로17길 8", "address_detail": "정릉동 746-2", "latitude": 37.612774, "longitude": 127.006531, "dist_to_subway": 170.68578556507342 }, "geometry": { "type": "Point", "coordinates": [ 200507.119397024391219, 456715.537470298644621 ] } },
{ "type": "Feature", "properties": { "station_id": "ST-845", "address": "서울특별시 성북구 인촌로 95", "address_detail": "성북구 안암동5가 101-144", "latitude": 37.586273, "longitude": 127.029877, "dist_to_subway": 77.01890283091079 }, "geometry": { "type": "Point", "coordinates": [ 202569.296212259912863, 453774.562245473556686 ] } },
{ "type": "Feature", "properties": { "station_id": "ST-843", "address": "서울특별시 성북구 동소문로22길 4", "address_detail": "성북구 동선동1가 101-5", "latitude": 37.592522, "longitude": 127.017677, "dist_to_subway": 102.71756785228834 }, "geometry": { "type": "Point", "coordinates": [ 201491.620049872930394, 454467.881181481585372 ] } },
{ "type": "Feature", "properties": { "station_id": "ST-842", "address": "서울특별시 성북구 동소문로 2", "address_detail": "성북구 동소문동2가 2-3", "latitude": 37.588448, "longitude": 127.006706, "dist_to_subway": 42.85042813511734 }, "geometry": { "type": "Point", "coordinates": [ 200522.71977882340434, 454015.599225218058564 ] } },
{ "type": "Feature", "properties": { "station_id": "ST-841", "address": "서울특별시 성북구 성북로 62", "address_detail": "성북구 성북동 142-1", "latitude": 37.592758, "longitude": 127.002357, "dist_to_subway": 586.71538217866464 }, "geometry": { "type": "Point", "coordinates": [ 200138.604171415994642, 454493.952342746255454 ] } },
{ "type": "Feature", "properties": { "station_id": "ST-840", "address": "서울특별시 송파구 석촌호수로12길 3-5", "address_detail": "송파구 잠실동 31", "latitude": 37.514088, "longitude": 127.09903, "dist_to_subway": 135.52707741987956 }, "geometry": { "type": "Point", "coordinates": [ 208685.499168886890402, 445766.918029198888689 ] } },
{ "type": "Feature", "properties": { "station_id": "ST-84", "address": "서울특별시 마포구 월드컵북로 424", "address_detail": "LG CNS앞", "latitude": 37.580811, "longitude": 126.88665, "dist_to_subway": 791.54042548990446 }, "geometry": { "type": "Point", "coordinates": [ 189918.123988232633565, 453174.162108737626113 ] } },
{ "type": "Feature", "properties": { "station_id": "ST-839", "address": "서울특별시 송파구 송파대로 지하 354", "address_detail": "송파구 가락동 459-4", "latitude": 37.499413, "longitude": 127.112869, "dist_to_subway": 68.670974957881285 }, "geometry": { "type": "Point", "coordinates": [ 209910.926538779080147, 444139.525250668928493 ] } },
{ "type": "Feature", "properties": { "station_id": "ST-838", "address": "서울특별시 송파구 송파대로 지하 257", "address_detail": "송파구 가락동 214-3", "latitude": 37.493179, "longitude": 127.118546, "dist_to_subway": 34.848699818790145 }, "geometry": { "type": "Point", "coordinates": [ 210413.78622914411244, 443448.235504025476985 ] } },
{ "type": "Feature", "properties": { "station_id": "ST-837", "address": "서울특별시 강서구 강서로 지하 54", "address_detail": "강서구 화곡동 662-5", "latitude": 37.532551, "longitude": 126.846321, "dist_to_subway": 92.607399638895572 }, "geometry": { "type": "Point", "coordinates": [ 186346.985893911885796, 447822.946731496311259 ] } },
{ "type": "Feature", "properties": { "station_id": "ST-836", "address": "서울특별시 강서구 곰달래로37길 13", "address_detail": "강서구곰달래로37길 13", "latitude": 37.53178, "longitude": 126.854485, "dist_to_subway": 689.61131903497778 }, "geometry": { "type": "Point", "coordinates": [ 187068.450517504679738, 447736.215117757732514 ] } },
{ "type": "Feature", "properties": { "station_id": "ST-835", "address": "서울특별시 강서구 강서로 304", "address_detail": "강서구 내발산동 724-42", "latitude": 37.552914, "longitude": 126.836571, "dist_to_subway": 460.70400904297333 }, "geometry": { "type": "Point", "coordinates": [ 185489.168732689606259, 450084.479912345821504 ] } },
{ "type": "Feature", "properties": { "station_id": "ST-834", "address": "서울특별시 강서구 공항대로 329", "address_detail": "강서구 등촌동 675-7", "latitude": 37.558197, "longitude": 126.844261, "dist_to_subway": 584.23856250731683 }, "geometry": { "type": "Point", "coordinates": [ 186169.667425802006619, 450669.670928270788863 ] } },
{ "type": "Feature", "properties": { "station_id": "ST-833", "address": "서울특별시 강서구 공항대로59길 8", "address_detail": "강서구 등촌동 666-90", "latitude": 37.551666, "longitude": 126.86409, "dist_to_subway": 182.03127506838209 }, "geometry": { "type": "Point", "coordinates": [ 187920.650042864464922, 449942.055026743153576 ] } },
{ "type": "Feature", "properties": { "station_id": "ST-832", "address": "서울특별시 강서구 방화대로47가길 22", "address_detail": "강서구 방화동 830-15", "latitude": 37.577213, "longitude": 126.813553, "dist_to_subway": 76.247650835694799 }, "geometry": { "type": "Point", "coordinates": [ 183460.60349324112758, 452785.227478921937291 ] } },
{ "type": "Feature", "properties": { "station_id": "ST-831", "address": "서울특별시 강서구 방화동 829-11", "address_detail": null, "latitude": 37.577106, "longitude": 126.811996, "dist_to_subway": 75.861533364977262 }, "geometry": { "type": "Point", "coordinates": [ 183323.041688988247188, 452773.627878686180338 ] } },
{ "type": "Feature", "properties": { "station_id": "ST-830", "address": "서울특별시 강동구 양재대로 1330 주공아파트", "address_detail": null, "latitude": 37.52459, "longitude": 127.135422, "dist_to_subway": 362.37369845612392 }, "geometry": { "type": "Point", "coordinates": [ 211901.242070389853325, 446936.474524611141533 ] } },
{ "type": "Feature", "properties": { "station_id": "ST-83", "address": "서울특별시 마포구 상암산로1길 71", "address_detail": "마포구 육아보육정보센터 앞", "latitude": 37.580631, "longitude": 126.883675, "dist_to_subway": 1054.5786563876186 }, "geometry": { "type": "Point", "coordinates": [ 189655.314696895395173, 453154.509441245230846 ] } },
{ "type": "Feature", "properties": { "station_id": "ST-829", "address": "서울특별시 강서구 화곡로 지하 168", "address_detail": "화곡역 6번출구", "latitude": 37.541412, "longitude": 126.840225, "dist_to_subway": 23.678673298814566 }, "geometry": { "type": "Point", "coordinates": [ 185809.860223133437103, 448807.324700857861899 ] } },
{ "type": "Feature", "properties": { "station_id": "ST-828", "address": "서울특별시 강서구 방화대로 241 공항중학교", "address_detail": null, "latitude": 37.562202, "longitude": 126.816246, "dist_to_subway": 394.07990797201438 }, "geometry": { "type": "Point", "coordinates": [ 183695.205442341393791, 451118.692806388309691 ] } },
{ "type": "Feature", "properties": { "station_id": "ST-827", "address": "서울특별시 성북구 안암로 69", "address_detail": "안암로터리 버스정류장", "latitude": 37.582592, "longitude": 127.028976, "dist_to_subway": 408.44957703751783 }, "geometry": { "type": "Point", "coordinates": [ 202489.835393458255567, 453365.98608692153357 ] } },
{ "type": "Feature", "properties": { "station_id": "ST-826", "address": "서울특별시 성북구 성북로 132-1", "address_detail": "만해공원", "latitude": 37.594402, "longitude": 126.99231, "dist_to_subway": 1394.5177162679267 }, "geometry": { "type": "Point", "coordinates": [ 199251.304486085893586, 454676.458981405186933 ] } },
{ "type": "Feature", "properties": { "station_id": "ST-825", "address": "서울특별시 성북구 동소문로 1", "address_detail": "한성대입구역6번출구 뒤", "latitude": 37.588764, "longitude": 127.00631, "dist_to_subway": 34.860619444466344 }, "geometry": { "type": "Point", "coordinates": [ 200487.742572485585697, 454050.670088355022017 ] } },
{ "type": "Feature", "properties": { "station_id": "ST-824", "address": "서울특별시 강서구 양천로24길 13 마곡센트레빌", "address_detail": null, "latitude": 37.572563, "longitude": 126.816422, "dist_to_subway": 558.61276081129495 }, "geometry": { "type": "Point", "coordinates": [ 183713.020422586181667, 452268.623095461691264 ] } },
{ "type": "Feature", "properties": { "station_id": "ST-823", "address": "서울특별시 강남구 개포로 623", "address_detail": "대청역1번출구 뒤", "latitude": 37.494007, "longitude": 127.079514, "dist_to_subway": 54.740178058189883 }, "geometry": { "type": "Point", "coordinates": [ 206961.945010098919738, 443536.557943339692429 ] } },
{ "type": "Feature", "properties": { "station_id": "ST-822", "address": "서울특별시 강남구 일원로 127", "address_detail": "일원역 4,5번 출구사이", "latitude": 37.483311, "longitude": 127.084938, "dist_to_subway": 63.525904226039252 }, "geometry": { "type": "Point", "coordinates": [ 207442.658817239658674, 442349.844134624989238 ] } },
{ "type": "Feature", "properties": { "station_id": "ST-821", "address": "서울특별시 강남구 논현로 82", "address_detail": "삼호물산버스정류장(23370) 옆", "latitude": 37.477509, "longitude": 127.045174, "dist_to_subway": 1023.351820740128 }, "geometry": { "type": "Point", "coordinates": [ 203925.996597814752022, 441703.520923658041283 ] } },
{ "type": "Feature", "properties": { "station_id": "ST-820", "address": "서울특별시 강남구 언주로 107", "address_detail": "현대아파트 정문 앞", "latitude": 37.483261, "longitude": 127.0523, "dist_to_subway": 637.70107620259364 }, "geometry": { "type": "Point", "coordinates": [ 204555.966118488140637, 442342.237557164975442 ] } },
{ "type": "Feature", "properties": { "station_id": "ST-82", "address": "서울특별시 마포구 월드컵로 212 마포구청", "address_detail": null, "latitude": 37.565746, "longitude": 126.901863, "dist_to_subway": 280.02118185514848 }, "geometry": { "type": "Point", "coordinates": [ 191260.127604214241728, 451500.572970624780282 ] } },
{ "type": "Feature", "properties": { "station_id": "ST-819", "address": "서울특별시 강남구 선릉로 지하 228", "address_detail": "강남세브란스교차로  래미안그레이튼 104동 앞", "latitude": 37.494236, "longitude": 127.047462, "dist_to_subway": 527.53107387999194 }, "geometry": { "type": "Point", "coordinates": [ 204127.470396951335715, 443560.108199534704909 ] } },
{ "type": "Feature", "properties": { "station_id": "ST-818", "address": "서울특별시 강남구 남부순환로 2748", "address_detail": "3호선 매봉역 3번출구앞", "latitude": 37.486767, "longitude": 127.046761, "dist_to_subway": 19.990313855994266 }, "geometry": { "type": "Point", "coordinates": [ 204065.877279756648932, 442731.110507663048338 ] } },
{ "type": "Feature", "properties": { "station_id": "ST-817", "address": "서울특별시 강남구 선릉로 지하 228", "address_detail": "8.삼호@ 2동 ( 간선도로)", "latitude": 37.493759, "longitude": 127.045898, "dist_to_subway": 675.35143722652651 }, "geometry": { "type": "Point", "coordinates": [ 203989.186201052565593, 443507.100644891615957 ] } },
{ "type": "Feature", "properties": { "station_id": "ST-816", "address": "서울특별시 강남구 강남대로 240", "address_detail": "양재역 3번출구 주변", "latitude": 37.485157, "longitude": 127.034073, "dist_to_subway": 76.972058923098402 }, "geometry": { "type": "Point", "coordinates": [ 202943.789923762029503, 442551.956703090050723 ] } },
{ "type": "Feature", "properties": { "station_id": "ST-815", "address": "서울특별시 강남구 역삼동 708-7", "address_detail": null, "latitude": 37.504105, "longitude": 127.049034, "dist_to_subway": 76.17469549962253 }, "geometry": { "type": "Point", "coordinates": [ 204265.934060298604891, 444655.517157042748295 ] } },
{ "type": "Feature", "properties": { "station_id": "ST-814", "address": "서울특별시 강남구 언주로 337", "address_detail": "동영문화센터앞", "latitude": 37.498051, "longitude": 127.044601, "dist_to_subway": 758.69036498366529 }, "geometry": { "type": "Point", "coordinates": [ 203874.269889484014129, 443983.407311495393515 ] } },
{ "type": "Feature", "properties": { "station_id": "ST-813", "address": "서울특별시 강남구 도곡로 183", "address_detail": "스타벅스 앞", "latitude": 37.492199, "longitude": 127.039459, "dist_to_subway": 870.4737491249607 }, "geometry": { "type": "Point", "coordinates": [ 203419.832517260831082, 443333.710668432118837 ] } },
{ "type": "Feature", "properties": { "station_id": "ST-812", "address": "서울특별시 강남구 테헤란로 지하 156", "address_detail": "역삼역 지하보도 2번출구", "latitude": 37.502357, "longitude": 127.04319, "dist_to_subway": 492.25723406019159 }, "geometry": { "type": "Point", "coordinates": [ 203749.285729137685848, 444461.265265875961632 ] } },
{ "type": "Feature", "properties": { "station_id": "ST-811", "address": "서울특별시 강남구 역삼동 801-7", "address_detail": null, "latitude": 37.503212, "longitude": 127.042732, "dist_to_subway": 498.22507691287024 }, "geometry": { "type": "Point", "coordinates": [ 203708.746262583241332, 444556.142175418324769 ] } },
{ "type": "Feature", "properties": { "station_id": "ST-810", "address": "서울특별시 강남구 강남대로 308", "address_detail": "뱅뱅사거리 랜드마크타워 앞", "latitude": 37.490551, "longitude": 127.031464, "dist_to_subway": 707.78204609867021 }, "geometry": { "type": "Point", "coordinates": [ 202712.849978691432625, 443150.547857010329608 ] } },
{ "type": "Feature", "properties": { "station_id": "ST-81", "address": "서울특별시 마포구 월드컵로42길 22", "address_detail": null, "latitude": 37.581112, "longitude": 126.880875, "dist_to_subway": 1301.9861139708692 }, "geometry": { "type": "Point", "coordinates": [ 189408.056311005959287, 453208.209317423112225 ] } },
{ "type": "Feature", "properties": { "station_id": "ST-809", "address": "서울특별시 강남구 삼성로 350", "address_detail": "대치동 삼성로", "latitude": 37.502396, "longitude": 127.0588, "dist_to_subway": 812.88008155849332 }, "geometry": { "type": "Point", "coordinates": [ 205129.572206535260193, 444466.319413856836036 ] } },
{ "type": "Feature", "properties": { "station_id": "ST-808", "address": "서울특별시 강남구 도곡로 447", "address_detail": "대치동 버거킹대치점", "latitude": 37.49865, "longitude": 127.059319, "dist_to_subway": 589.06399012702946 }, "geometry": { "type": "Point", "coordinates": [ 205175.719247278524563, 444050.586548058665358 ] } },
{ "type": "Feature", "properties": { "station_id": "ST-807", "address": "서울특별시 강남구 도곡로 540", "address_detail": "천주교 대치 2동 교회 옆", "latitude": 37.500439, "longitude": 127.066223, "dist_to_subway": 570.11695445143243 }, "geometry": { "type": "Point", "coordinates": [ 205786.088039240275975, 444249.541287328174803 ] } },
{ "type": "Feature", "properties": { "station_id": "ST-806", "address": "서울특별시 강남구 영동대로 308", "address_detail": "주식회사 오뚜기 정문 앞", "latitude": 37.502213, "longitude": 127.067207, "dist_to_subway": 684.93556210905251 }, "geometry": { "type": "Point", "coordinates": [ 205872.961468694091309, 444446.494245951180346 ] } },
{ "type": "Feature", "properties": { "station_id": "ST-805", "address": "서울특별시 강남구 테헤란로 534", "address_detail": "삼성역 3번 출구", "latitude": 37.508091, "longitude": 127.063103, "dist_to_subway": 83.725887551338658 }, "geometry": { "type": "Point", "coordinates": [ 205509.644248489290476, 445098.63667457428528 ] } },
{ "type": "Feature", "properties": { "station_id": "ST-804", "address": "서울특별시 강남구 남부순환로 지하 3104", "address_detail": "학여울역 사거리", "latitude": 37.496117, "longitude": 127.069443, "dist_to_subway": 118.457417705636 }, "geometry": { "type": "Point", "coordinates": [ 206071.16481894327444, 443770.052068214106839 ] } },
{ "type": "Feature", "properties": { "station_id": "ST-803", "address": "서울특별시 강남구 남부순환로 지하 2814", "address_detail": "대치지구대 방향", "latitude": 37.491928, "longitude": 127.056969, "dist_to_subway": 174.54194055958993 }, "geometry": { "type": "Point", "coordinates": [ 204968.353490778739797, 443304.40109276358271 ] } },
{ "type": "Feature", "properties": { "station_id": "ST-802", "address": "서울특별시 강남구 테헤란로 435", "address_detail": "포스코4거리 서측(수협 삼성동 지점)", "latitude": 37.506607, "longitude": 127.05468, "dist_to_subway": 554.46131869715907 }, "geometry": { "type": "Point", "coordinates": [ 204765.004016512742965, 444933.476298585301265 ] } },
{ "type": "Feature", "properties": { "station_id": "ST-801", "address": "서울특별시 강남구 봉은사로 531", "address_detail": "삼성중앙역4번출구(문화센터더 라빌)", "latitude": 37.513577, "longitude": 127.055031, "dist_to_subway": 166.90325883565785 }, "geometry": { "type": "Point", "coordinates": [ 204795.598947138380026, 445707.081264986132737 ] } },
{ "type": "Feature", "properties": { "station_id": "ST-800", "address": "서울특별시 강남구 영동대로 502", "address_detail": "삼성역 7번출구", "latitude": 37.509575, "longitude": 127.063408, "dist_to_subway": 79.64403907585627 }, "geometry": { "type": "Point", "coordinates": [ 205536.50299769101548, 445263.360745298443362 ] } },
{ "type": "Feature", "properties": { "station_id": "ST-80", "address": "서울특별시 마포구 월드컵북로60길 13", "address_detail": "DMC빌 앞", "latitude": 37.582657, "longitude": 126.885788, "dist_to_subway": 890.74150783224127 }, "geometry": { "type": "Point", "coordinates": [ 189842.235196343681309, 453379.142267961753532 ] } },
{ "type": "Feature", "properties": { "station_id": "ST-8", "address": "서울특별시 마포구 독막로 4", "address_detail": "381-1", "latitude": 37.548645, "longitude": 126.912827, "dist_to_subway": 78.65848580404645 }, "geometry": { "type": "Point", "coordinates": [ 192226.990998278110055, 449601.578375837416388 ] } },
{ "type": "Feature", "properties": { "station_id": "ST-799", "address": "서울특별시 강남구 봉은사로 지하 601", "address_detail": "봉은사역 5번출구 옆", "latitude": 37.514248, "longitude": 127.061119, "dist_to_subway": 77.336825969573169 }, "geometry": { "type": "Point", "coordinates": [ 205333.792824828706216, 445781.877882497559767 ] } },
{ "type": "Feature", "properties": { "station_id": "ST-798", "address": "서울특별시 강남구 삼성동 111-4", "address_detail": null, "latitude": 37.521015, "longitude": 127.06015, "dist_to_subway": 628.41192230931495 }, "geometry": { "type": "Point", "coordinates": [ 205247.656103942776099, 446532.881823787698522 ] } },
{ "type": "Feature", "properties": { "station_id": "ST-797", "address": "서울특별시 강남구 테헤란로 501", "address_detail": "포스코사거리(기업은행)", "latitude": 37.507233, "longitude": 127.056854, "dist_to_subway": 585.524166800437 }, "geometry": { "type": "Point", "coordinates": [ 204957.184719108656282, 445003.065647721465211 ] } },
{ "type": "Feature", "properties": { "station_id": "ST-796", "address": "서울특별시 강남구 도산대로 539", "address_detail": "금원빌딩", "latitude": 37.525116, "longitude": 127.052467, "dist_to_subway": 643.04934202805123 }, "geometry": { "type": "Point", "coordinates": [ 204568.22175552175031, 446987.649658411799464 ] } },
{ "type": "Feature", "properties": { "station_id": "ST-795", "address": "서울특별시 강남구 영동대로 703", "address_detail": "청담역 13번 출구 앞", "latitude": 37.52058, "longitude": 127.056328, "dist_to_subway": 295.79075745208081 }, "geometry": { "type": "Point", "coordinates": [ 204909.814136435918044, 446484.398185503319837 ] } },
{ "type": "Feature", "properties": { "station_id": "ST-794", "address": "서울특별시 강남구 학동로 지하 508", "address_detail": "청담동 맥도날드 옆", "latitude": 37.523613, "longitude": 127.040176, "dist_to_subway": 419.400068003363 }, "geometry": { "type": "Point", "coordinates": [ 203481.808394318650244, 446820.316605547035579 ] } },
{ "type": "Feature", "properties": { "station_id": "ST-793", "address": "서울특별시 강남구 압구정로 311", "address_detail": "압구정파출소 앞", "latitude": 37.529301, "longitude": 127.035599, "dist_to_subway": 485.48637761524185 }, "geometry": { "type": "Point", "coordinates": [ 203076.980583863303764, 447451.462479266163427 ] } },
{ "type": "Feature", "properties": { "station_id": "ST-792", "address": "서울특별시 강남구 압구정로 339-2 가로판매", "address_detail": null, "latitude": 37.528381, "longitude": 127.039017, "dist_to_subway": 174.06686522823787 }, "geometry": { "type": "Point", "coordinates": [ 203379.143790460773744, 447349.468021728680469 ] } },
{ "type": "Feature", "properties": { "station_id": "ST-791", "address": "서울특별시 강남구 압구정로 지하 172", "address_detail": "압구정역 2번 출구 옆", "latitude": 37.527123, "longitude": 127.028717, "dist_to_subway": 23.326125292151072 }, "geometry": { "type": "Point", "coordinates": [ 202468.739478271920234, 447209.53141155326739 ] } },
{ "type": "Feature", "properties": { "station_id": "ST-790", "address": "서울특별시 강남구 언주로 734", "address_detail": "MCM 본사 직영점 앞", "latitude": 37.520641, "longitude": 127.034508, "dist_to_subway": 684.70706354130277 }, "geometry": { "type": "Point", "coordinates": [ 202980.882423018163536, 446490.268375781364739 ] } },
{ "type": "Feature", "properties": { "station_id": "ST-79", "address": "서울특별시 마포구 월드컵북로60길 17", "address_detail": "우리금융상암센터 교차로", "latitude": 37.583481, "longitude": 126.886696, "dist_to_subway": 840.16534016193145 }, "geometry": { "type": "Point", "coordinates": [ 189922.549390708620194, 453470.499270165280905 ] } },
{ "type": "Feature", "properties": { "station_id": "ST-789", "address": "서울특별시 강남구 언주로 619 대현그린타워", "address_detail": null, "latitude": 37.511627, "longitude": 127.035652, "dist_to_subway": 456.3050175249025 }, "geometry": { "type": "Point", "coordinates": [ 203082.377057585661532, 445489.856338003475685 ] } },
{ "type": "Feature", "properties": { "station_id": "ST-788", "address": "서울특별시 강남구 학동로 102 논현역", "address_detail": null, "latitude": 37.511372, "longitude": 127.021461, "dist_to_subway": 31.231631612012539 }, "geometry": { "type": "Point", "coordinates": [ 201827.721955677581718, 445461.193826899165288 ] } },
{ "type": "Feature", "properties": { "station_id": "ST-788", "address": "서울특별시 강남구 학동로 102 논현역", "address_detail": null, "latitude": 37.511372, "longitude": 127.021461, "dist_to_subway": 31.231631612012539 }, "geometry": { "type": "Point", "coordinates": [ 201827.721955677581718, 445461.193826899165288 ] } },
{ "type": "Feature", "properties": { "station_id": "ST-787", "address": "서울특별시 강남구 봉은사로 지하 102", "address_detail": "교보타워 버스정류장", "latitude": 37.505581, "longitude": 127.024277, "dist_to_subway": 129.21412093694479 }, "geometry": { "type": "Point", "coordinates": [ 202076.847712548827985, 444818.518199438927695 ] } },
{ "type": "Feature", "properties": { "station_id": "ST-787", "address": "서울특별시 강남구 봉은사로 지하 102", "address_detail": "교보타워 버스정류장", "latitude": 37.505581, "longitude": 127.024277, "dist_to_subway": 129.21412093694479 }, "geometry": { "type": "Point", "coordinates": [ 202076.847712548827985, 444818.518199438927695 ] } },
{ "type": "Feature", "properties": { "station_id": "ST-786", "address": "서울특별시 강남구 학동로 지하 508", "address_detail": "학동로 래미안 아파트 앞", "latitude": 37.517773, "longitude": 127.043022, "dist_to_subway": 168.8126892539357 }, "geometry": { "type": "Point", "coordinates": [ 203733.675948910677107, 446172.251878957031295 ] } },
{ "type": "Feature", "properties": { "station_id": "ST-785", "address": "서울특별시 강남구 자곡로 101", "address_detail": "래미안강남힐즈 앞", "latitude": 37.472919, "longitude": 127.095886, "dist_to_subway": 1568.6539798189153 }, "geometry": { "type": "Point", "coordinates": [ 208412.119934008514974, 441197.375518475426361 ] } },
{ "type": "Feature", "properties": { "station_id": "ST-784", "address": "서울특별시 강남구 영동대로112길 66", "address_detail": "삼성도로공원", "latitude": 37.515888, "longitude": 127.0662, "dist_to_subway": 558.10991410660131 }, "geometry": { "type": "Point", "coordinates": [ 205782.875706260529114, 445964.195275747566484 ] } },
{ "type": "Feature", "properties": { "station_id": "ST-783", "address": "서울특별시 강남구 학동로 443", "address_detail": "강남구 청담동 77-76 (학동로 443 앞 도로)", "latitude": 37.518902, "longitude": 127.049385, "dist_to_subway": 354.26711616375917 }, "geometry": { "type": "Point", "coordinates": [ 204296.134522871521767, 446297.824839796870947 ] } },
{ "type": "Feature", "properties": { "station_id": "ST-782", "address": "서울특별시 강남구 영동대로 101", "address_detail": "대모산입구역 2번출구 앞", "latitude": 37.492077, "longitude": 127.071976, "dist_to_subway": 102.14845493229326 }, "geometry": { "type": "Point", "coordinates": [ 206295.495532080793055, 443321.825796357356012 ] } },
{ "type": "Feature", "properties": { "station_id": "ST-781", "address": "서울특별시 서초구 바우뫼로12길 70", "address_detail": "더케이호텔 입구(양재2)", "latitude": 37.467506, "longitude": 127.034477, "dist_to_subway": 446.88638383190096 }, "geometry": { "type": "Point", "coordinates": [ 202980.206826358364196, 440592.928781031980179 ] } },
{ "type": "Feature", "properties": { "station_id": "ST-780", "address": "서울특별시 서초구 잠원로4길 지하 46", "address_detail": "잠원역 3,4번 출구사이", "latitude": 37.512989, "longitude": 127.011177, "dist_to_subway": 25.808814458444946 }, "geometry": { "type": "Point", "coordinates": [ 200918.466802050825208, 445640.51867903926177 ] } },
{ "type": "Feature", "properties": { "station_id": "ST-78", "address": "서울특별시 마포구 가양대로 189", "address_detail": "부엉이근린공원 앞", "latitude": 37.58559, "longitude": 126.884727, "dist_to_subway": 1096.3232281677808 }, "geometry": { "type": "Point", "coordinates": [ 189748.923195841256529, 453704.790741763135884 ] } },
{ "type": "Feature", "properties": { "station_id": "ST-779", "address": "서울특별시 강남구 헌릉로590길 10", "address_detail": "리엔파크 2단지 앞", "latitude": 37.465061, "longitude": 127.101196, "dist_to_subway": 2327.5725482406265 }, "geometry": { "type": "Point", "coordinates": [ 208882.75549187703291, 440325.720437502546702 ] } },
{ "type": "Feature", "properties": { "station_id": "ST-778", "address": "서울특별시 강남구 헌릉로 623", "address_detail": "세곡사거리 대왕파출소 앞", "latitude": 37.465317, "longitude": 127.107727, "dist_to_subway": 1765.2440593996148 }, "geometry": { "type": "Point", "coordinates": [ 209460.503904859797331, 440354.76462342083687 ] } },
{ "type": "Feature", "properties": { "station_id": "ST-777", "address": "서울특별시 강남구 압구정로 134", "address_detail": "현대고등학교 건너편", "latitude": 37.524071, "longitude": 127.02179, "dist_to_subway": 677.25461035075227 }, "geometry": { "type": "Point", "coordinates": [ 201856.506057717197109, 446870.640217939333525 ] } },
{ "type": "Feature", "properties": { "station_id": "ST-776", "address": "서울특별시 서초구 잠원로 145-9", "address_detail": null, "latitude": 37.516197, "longitude": 127.009209, "dist_to_subway": 420.96426048727943 }, "geometry": { "type": "Point", "coordinates": [ 200744.445155730703846, 445996.552846258855425 ] } },
{ "type": "Feature", "properties": { "station_id": "ST-775", "address": "서울특별시 강남구 논현로2길 22", "address_detail": "개포동 1277", "latitude": 37.471539, "longitude": 127.050591, "dist_to_subway": 1089.7222707775977 }, "geometry": { "type": "Point", "coordinates": [ 204405.490041497192578, 441041.161636990378611 ] } },
{ "type": "Feature", "properties": { "station_id": "ST-774", "address": "서울특별시 서초구 청계산로 10", "address_detail": "양재동 238-1", "latitude": 37.462688, "longitude": 127.046112, "dist_to_subway": 1061.0361527875953 }, "geometry": { "type": "Point", "coordinates": [ 204009.744060541677754, 440058.615765579103027 ] } },
{ "type": "Feature", "properties": { "station_id": "ST-773", "address": "서울특별시 서초구 강남대로 27", "address_detail": "양재동 238", "latitude": 37.46769, "longitude": 127.04036, "dist_to_subway": 310.64337810808678 }, "geometry": { "type": "Point", "coordinates": [ 203500.634860517282505, 440613.548821157601196 ] } },
{ "type": "Feature", "properties": { "station_id": "ST-772", "address": "서울특별시 서초구 양재동 237-2", "address_detail": null, "latitude": 37.470165, "longitude": 127.03862, "dist_to_subway": 23.693905272260402 }, "geometry": { "type": "Point", "coordinates": [ 203346.598855929740239, 440888.180481683579274 ] } },
{ "type": "Feature", "properties": { "station_id": "ST-771", "address": "서울특별시 서초구 태봉로2길 24", "address_detail": "우면동 718", "latitude": 37.462639, "longitude": 127.026619, "dist_to_subway": 1327.2286189482475 }, "geometry": { "type": "Point", "coordinates": [ 202285.197014335426502, 440052.539405185496435 ] } },
{ "type": "Feature", "properties": { "station_id": "ST-770", "address": "서울특별시 서초구 바우뫼로18길 14", "address_detail": "서초구 양재동 127-1", "latitude": 37.473614, "longitude": 127.03051, "dist_to_subway": 805.2615162002312 }, "geometry": { "type": "Point", "coordinates": [ 202629.059606016235193, 441270.724339516833425 ] } },
{ "type": "Feature", "properties": { "station_id": "ST-77", "address": "서울특별시 마포구 상암동 1748-1", "address_detail": null, "latitude": 37.582928, "longitude": 126.879837, "dist_to_subway": 1412.4165966946996 }, "geometry": { "type": "Point", "coordinates": [ 189316.630323516146746, 453409.884612110909075 ] } },
{ "type": "Feature", "properties": { "station_id": "ST-769", "address": "서울특별시 서초구 바우뫼로1길 35", "address_detail": "서초구 양재동 20-40", "latitude": 37.477852, "longitude": 127.03891, "dist_to_subway": 760.85185853296161 }, "geometry": { "type": "Point", "coordinates": [ 203371.913894720346434, 441741.351207444211468 ] } },
{ "type": "Feature", "properties": { "station_id": "ST-768", "address": "서울특별시 서초구 강남대로 193", "address_detail": "서초구 양재동 105-4", "latitude": 37.481491, "longitude": 127.036728, "dist_to_subway": 316.02146916087105 }, "geometry": { "type": "Point", "coordinates": [ 203178.760007948847488, 442145.160547747567762 ] } },
{ "type": "Feature", "properties": { "station_id": "ST-767", "address": "서울특별시 서초구 남부순환로 지하 2585", "address_detail": "서초구 양재동 105-4", "latitude": 37.48399, "longitude": 127.03418, "dist_to_subway": 46.407850476839727 }, "geometry": { "type": "Point", "coordinates": [ 202953.298328148055589, 442422.437386806996074 ] } },
{ "type": "Feature", "properties": { "station_id": "ST-766", "address": "서울특별시 강남구 논현로 201", "address_detail": "강남구 도곡동 207", "latitude": 37.485378, "longitude": 127.041702, "dist_to_subway": 480.7831002416342 }, "geometry": { "type": "Point", "coordinates": [ 203618.51617164129857, 442576.745621998270508 ] } },
{ "type": "Feature", "properties": { "station_id": "ST-765", "address": "서울특별시 서초구 서초대로 지하 294", "address_detail": "서초구 서초동 1748-6", "latitude": 37.494217, "longitude": 127.013786, "dist_to_subway": 82.928862036388736 }, "geometry": { "type": "Point", "coordinates": [ 201149.40230074050487, 443557.078589951619506 ] } },
{ "type": "Feature", "properties": { "station_id": "ST-764", "address": "서울특별시 서초구 서초중앙로 지하 31", "address_detail": "서초구 서초동 1748-38", "latitude": 37.484558, "longitude": 127.01487, "dist_to_subway": 127.1189309922038 }, "geometry": { "type": "Point", "coordinates": [ 201245.415708779910346, 442485.061024327529594 ] } },
{ "type": "Feature", "properties": { "station_id": "ST-763", "address": "서울특별시 서초구 사평대로 73", "address_detail": "서초구 방배동 1037-2", "latitude": 37.482159, "longitude": 127.002701, "dist_to_subway": 458.79560273421333 }, "geometry": { "type": "Point", "coordinates": [ 200169.139559791248757, 442218.718605579517316 ] } },
{ "type": "Feature", "properties": { "station_id": "ST-762", "address": "서울특별시 서초구 효령로36길 22", "address_detail": "서초동 1418", "latitude": 37.491112, "longitude": 127.022957, "dist_to_subway": 781.61121631515675 }, "geometry": { "type": "Point", "coordinates": [ 201960.499654550221749, 443212.606665601429995 ] } },
{ "type": "Feature", "properties": { "station_id": "ST-761", "address": "서울특별시 서초구 서초대로 405", "address_detail": "1377", "latitude": 37.496914, "longitude": 127.024963, "dist_to_subway": 277.8896016032507 }, "geometry": { "type": "Point", "coordinates": [ 202137.743170044588624, 443856.600361132121179 ] } },
{ "type": "Feature", "properties": { "station_id": "ST-760", "address": "서울특별시 동작구 사당로 지하 310", "address_detail": "서초구 방배동 2298", "latitude": 37.485828, "longitude": 126.982628, "dist_to_subway": 74.329335733869442 }, "geometry": { "type": "Point", "coordinates": [ 198393.82069682146539, 442626.099152047303505 ] } },
{ "type": "Feature", "properties": { "station_id": "ST-76", "address": "서울특별시 마포구 월드컵북로 502-36", "address_detail": "상암월드컵파크 10단지 앞", "latitude": 37.586189, "longitude": 126.881615, "dist_to_subway": 1371.303235312364 }, "geometry": { "type": "Point", "coordinates": [ 189474.140060621983139, 453771.61981351848226 ] } },
{ "type": "Feature", "properties": { "station_id": "ST-759", "address": "서울특별시 서초구 방배천로 126", "address_detail": "서초구 방배동 3151", "latitude": 37.487011, "longitude": 126.984962, "dist_to_subway": 275.73251716354895 }, "geometry": { "type": "Point", "coordinates": [ 198600.269443144410616, 442757.358736482914537 ] } },
{ "type": "Feature", "properties": { "station_id": "ST-758", "address": "서울특별시 서초구 방배동 388-5", "address_detail": null, "latitude": 37.489769, "longitude": 126.986763, "dist_to_subway": 574.17880357039292 }, "geometry": { "type": "Point", "coordinates": [ 198759.600508104253095, 443063.436401697690599 ] } },
{ "type": "Feature", "properties": { "station_id": "ST-757", "address": "서울특별시 서초구 서초대로 지하 103", "address_detail": "서초구 방배동 874-16", "latitude": 37.489052, "longitude": 126.992523, "dist_to_subway": 181.65001192733021 }, "geometry": { "type": "Point", "coordinates": [ 199268.997081792738754, 442983.793947948259301 ] } },
{ "type": "Feature", "properties": { "station_id": "ST-756", "address": "서울특별시 서초구 방배로1길 9", "address_detail": "서초구 방배동 1034-2", "latitude": 37.475182, "longitude": 127.001389, "dist_to_subway": 769.94549623333683 }, "geometry": { "type": "Point", "coordinates": [ 200053.095798790018307, 441444.357886599435005 ] } },
{ "type": "Feature", "properties": { "station_id": "ST-755", "address": "서울특별시 서초구 방배로9길 23", "address_detail": "서초구 방배동 504-4", "latitude": 37.473759, "longitude": 126.995247, "dist_to_subway": 875.94041892763323 }, "geometry": { "type": "Point", "coordinates": [ 199509.792111804679735, 441286.441175068786833 ] } },
{ "type": "Feature", "properties": { "station_id": "ST-754", "address": "서울특별시 서초구 남부순환로 2183", "address_detail": "서초구 방배동 2577", "latitude": 37.47261, "longitude": 126.983009, "dist_to_subway": 454.81112753081578 }, "geometry": { "type": "Point", "coordinates": [ 198427.229121072305134, 441159.058991697267629 ] } },
{ "type": "Feature", "properties": { "station_id": "ST-753", "address": "서울특별시 동작구 동작대로 지하 3", "address_detail": "서초구 방배동 495-3", "latitude": 37.478069, "longitude": 126.982033, "dist_to_subway": 128.17396653753511 }, "geometry": { "type": "Point", "coordinates": [ 198341.019012416247278, 441764.95705249463208 ] } },
{ "type": "Feature", "properties": { "station_id": "ST-752", "address": "서울특별시 서초구 방배로 110", "address_detail": "서초구 방배동 905-34", "latitude": 37.485611, "longitude": 126.994682, "dist_to_subway": 245.57645367233911 }, "geometry": { "type": "Point", "coordinates": [ 199459.909312596835662, 442601.869208160263952 ] } },
{ "type": "Feature", "properties": { "station_id": "ST-751", "address": "서울특별시 서초구 신반포로 10", "address_detail": "서초구 반포동 752", "latitude": 37.500614, "longitude": 126.98616, "dist_to_subway": 132.92511374914332 }, "geometry": { "type": "Point", "coordinates": [ 198706.46861158972024, 444267.108209138968959 ] } },
{ "type": "Feature", "properties": { "station_id": "ST-750", "address": "서울특별시 서초구 신반포로 지하 188", "address_detail": "서초구 잠원동 101", "latitude": 37.506199, "longitude": 127.003944, "dist_to_subway": 47.306307524584632 }, "geometry": { "type": "Point", "coordinates": [ 200279.01061157885124, 444886.868234139168635 ] } },
{ "type": "Feature", "properties": { "station_id": "ST-749", "address": "서울특별시 서초구 나루터로4길 60", "address_detail": "서초구 잠원동 78", "latitude": 37.513046, "longitude": 127.005959, "dist_to_subway": 466.21942736334393 }, "geometry": { "type": "Point", "coordinates": [ 200457.13872372804326, 445646.810435645922553 ] } },
{ "type": "Feature", "properties": { "station_id": "ST-748", "address": "서울특별시 서초구 신반포로 지하 105", "address_detail": "서초구 반포동 128-1", "latitude": 37.504116, "longitude": 126.99749, "dist_to_subway": 158.75221955644355 }, "geometry": { "type": "Point", "coordinates": [ 199708.34545325639192, 444655.68499099672772 ] } },
{ "type": "Feature", "properties": { "station_id": "ST-747", "address": "서울특별시 서초구 신반포로 지하 188", "address_detail": "서초구 반포동 117-4", "latitude": 37.502232, "longitude": 127.002258, "dist_to_subway": 278.57719366881537 }, "geometry": { "type": "Point", "coordinates": [ 200129.939896780910203, 444446.576234485080931 ] } },
{ "type": "Feature", "properties": { "station_id": "ST-746", "address": "서울특별시 서초구 고무래로 89 반포써밋", "address_detail": null, "latitude": 37.500652, "longitude": 127.018616, "dist_to_subway": 493.66391301318572 }, "geometry": { "type": "Point", "coordinates": [ 201576.403854142758064, 444271.352331029891502 ] } },
{ "type": "Feature", "properties": { "station_id": "ST-745", "address": "서울특별시 서초구 사평대로 지하 285", "address_detail": "서초구 반포동 128-7", "latitude": 37.505096, "longitude": 127.013107, "dist_to_subway": 214.39293974862196 }, "geometry": { "type": "Point", "coordinates": [ 201089.20762363699032, 444764.508752723224461 ] } },
{ "type": "Feature", "properties": { "station_id": "ST-744", "address": "서울특별시 서초구 헌릉로8길 42", "address_detail": "서초구 내곡동 123-1", "latitude": 37.454357, "longitude": 127.062103, "dist_to_subway": 976.54678356395857 }, "geometry": { "type": "Point", "coordinates": [ 205425.064819039602298, 439134.771437408169731 ] } },
{ "type": "Feature", "properties": { "station_id": "ST-743", "address": "서울특별시 서초구 청계산로9길 76", "address_detail": "서초구 신원동 411-69", "latitude": 37.453751, "longitude": 127.05938, "dist_to_subway": 796.85688109678972 }, "geometry": { "type": "Point", "coordinates": [ 205184.1751807241817, 439067.361817624070682 ] } },
{ "type": "Feature", "properties": { "station_id": "ST-742", "address": "서울특별시 서초구 청계산로 지하 179", "address_detail": "서초구 신원동 276-1", "latitude": 37.448936, "longitude": 127.054375, "dist_to_subway": 222.85380334878741 }, "geometry": { "type": "Point", "coordinates": [ 204741.629179441893939, 438532.699050394352525 ] } },
{ "type": "Feature", "properties": { "station_id": "ST-741", "address": "서울특별시 서초구 본마을2길 2", "address_detail": "서초구 신원동 485-13", "latitude": 37.453281, "longitude": 127.051483, "dist_to_subway": 768.58743299259072 }, "geometry": { "type": "Point", "coordinates": [ 204485.470942583167925, 439014.798065437818877 ] } },
{ "type": "Feature", "properties": { "station_id": "ST-740", "address": "서울특별시 송파구 오금로 지하 321", "address_detail": "송파구 오금동 44-2", "latitude": 37.502594, "longitude": 127.127647, "dist_to_subway": 64.917898587567876 }, "geometry": { "type": "Point", "coordinates": [ 211217.226159042213112, 444494.226689974137116 ] } },
{ "type": "Feature", "properties": { "station_id": "ST-74", "address": "서울특별시 마포구 월드컵로 251", "address_detail": "운영센터", "latitude": 37.566406, "longitude": 126.893669, "dist_to_subway": 606.36902056039116 }, "geometry": { "type": "Point", "coordinates": [ 190536.283084650640376, 451574.62504509446444 ] } },
{ "type": "Feature", "properties": { "station_id": "ST-739", "address": "서울특별시 송파구 석촌호수로 298", "address_detail": "송파구 신천동 33", "latitude": 37.512104, "longitude": 127.10778, "dist_to_subway": 418.46069498127321 }, "geometry": { "type": "Point", "coordinates": [ 209459.331673160690116, 445547.555022134503815 ] } },
{ "type": "Feature", "properties": { "station_id": "ST-738", "address": "서울특별시 송파구 성내천로 233", "address_detail": "송파구 마천동 200-58", "latitude": 37.499756, "longitude": 127.152504, "dist_to_subway": 529.53628332217636 }, "geometry": { "type": "Point", "coordinates": [ 213415.666108274745056, 444182.478297063149512 ] } },
{ "type": "Feature", "properties": { "station_id": "ST-737", "address": "서울특별시 송파구 송파대로28길 24", "address_detail": "송파구 가락동 100-2", "latitude": 37.493729, "longitude": 127.120621, "dist_to_subway": 217.62310138455922 }, "geometry": { "type": "Point", "coordinates": [ 210597.210065822844626, 443509.508980287413578 ] } },
{ "type": "Feature", "properties": { "station_id": "ST-736", "address": "서울특별시 노원구 한글비석로 235", "address_detail": "노원구 중계동 391", "latitude": 37.649021, "longitude": 127.076408, "dist_to_subway": 1176.3917366425462 }, "geometry": { "type": "Point", "coordinates": [ 206673.560241573984968, 460741.233462000149302 ] } },
{ "type": "Feature", "properties": { "station_id": "ST-735", "address": "서울특별시 노원구 동일로 지하 1074", "address_detail": "노원구 공릉동 385-4", "latitude": 37.626614, "longitude": 127.072754, "dist_to_subway": 97.592027381364858 }, "geometry": { "type": "Point", "coordinates": [ 206352.982172188872937, 458254.016505730920471 ] } },
{ "type": "Feature", "properties": { "station_id": "ST-734", "address": "서울특별시 도봉구 마들로 891", "address_detail": "도봉동 22-26", "latitude": 37.688274, "longitude": 127.049065, "dist_to_subway": 249.69162511191792 }, "geometry": { "type": "Point", "coordinates": [ 204258.327233456133399, 465096.394336636643857 ] } },
{ "type": "Feature", "properties": { "station_id": "ST-733", "address": "서울특별시 동작구 여의대방로16길 53", "address_detail": "신대방동 460-37", "latitude": 37.494499, "longitude": 126.916527, "dist_to_subway": 181.74825348293203 }, "geometry": { "type": "Point", "coordinates": [ 192548.526533010473941, 443591.699183068121783 ] } },
{ "type": "Feature", "properties": { "station_id": "ST-732", "address": "서울특별시 동작구 사당동 1157-2", "address_detail": null, "latitude": 37.489079, "longitude": 126.973564, "dist_to_subway": 537.96927270477681 }, "geometry": { "type": "Point", "coordinates": [ 197592.281623346731067, 442987.119597450422589 ] } },
{ "type": "Feature", "properties": { "station_id": "ST-731", "address": "서울특별시 동작구 사당로 169", "address_detail": "동작구 사당동 211-2", "latitude": 37.486835, "longitude": 126.968048, "dist_to_subway": 376.83179069763736 }, "geometry": { "type": "Point", "coordinates": [ 197104.363337315007811, 442738.222273123159539 ] } },
{ "type": "Feature", "properties": { "station_id": "ST-730", "address": "서울특별시 동작구 동작대로 129", "address_detail": "동작구 사당동 708-559", "latitude": 37.48888, "longitude": 126.98201, "dist_to_subway": 290.46078333380325 }, "geometry": { "type": "Point", "coordinates": [ 198339.233179682050832, 442964.84477675013477 ] } },
{ "type": "Feature", "properties": { "station_id": "ST-73", "address": "서울특별시 영등포구 여의동로 지하343", "address_detail": "여의나루역 1번출구 앞", "latitude": 37.527157, "longitude": 126.9319, "dist_to_subway": 88.724580160678855 }, "geometry": { "type": "Point", "coordinates": [ 193910.683510944829322, 447215.234553564863745 ] } },
{ "type": "Feature", "properties": { "station_id": "ST-729", "address": "서울특별시 동작구 동작대로 지하 3", "address_detail": "동작구 사당동 1112", "latitude": 37.481491, "longitude": 126.981583, "dist_to_subway": 411.21378521980563 }, "geometry": { "type": "Point", "coordinates": [ 198301.295997522945981, 442144.764824189594947 ] } },
{ "type": "Feature", "properties": { "station_id": "ST-728", "address": "서울특별시 동작구 상도로 지하 76", "address_detail": "동작구 상도동 329-2", "latitude": 37.499855, "longitude": 126.929565, "dist_to_subway": 115.25612392420656 }, "geometry": { "type": "Point", "coordinates": [ 193701.966085995431058, 444185.189357423980255 ] } },
{ "type": "Feature", "properties": { "station_id": "ST-727", "address": "서울특별시 동작구 시흥대로 634", "address_detail": "동작구 신대방동 699", "latitude": 37.488361, "longitude": 126.906227, "dist_to_subway": 547.8801060913986 }, "geometry": { "type": "Point", "coordinates": [ 191636.980408032337436, 442911.32809146650834 ] } },
{ "type": "Feature", "properties": { "station_id": "ST-726", "address": "서울특별시 동작구 상도로 지하 2", "address_detail": "동작구 대방동 466-51", "latitude": 37.500076, "longitude": 126.921082, "dist_to_subway": 61.241767829373629 }, "geometry": { "type": "Point", "coordinates": [ 192951.866278349334607, 444210.324910141993314 ] } },
{ "type": "Feature", "properties": { "station_id": "ST-725", "address": "서울특별시 관악구 은천로 69", "address_detail": "관악구 봉천동 982-2", "latitude": 37.486359, "longitude": 126.942925, "dist_to_subway": 452.92824189210205 }, "geometry": { "type": "Point", "coordinates": [ 194882.409844311128836, 442686.478371505974792 ] } },
{ "type": "Feature", "properties": { "station_id": "ST-724", "address": "서울특별시 관악구 신림로 270", "address_detail": "관악구 신림동 808-263", "latitude": 37.478428, "longitude": 126.931862, "dist_to_subway": 106.09219037250131 }, "geometry": { "type": "Point", "coordinates": [ 193903.321989609918091, 441806.901795162528288 ] } },
{ "type": "Feature", "properties": { "station_id": "ST-723", "address": "서울특별시 관악구 남부순환로 1675", "address_detail": "관악구 봉천동 979-9", "latitude": 37.484901, "longitude": 126.936531, "dist_to_subway": 551.5742367806547 }, "geometry": { "type": "Point", "coordinates": [ 194316.798354971251683, 442525.029420161037706 ] } },
{ "type": "Feature", "properties": { "station_id": "ST-722", "address": "서울특별시 관악구 낙성대로 70", "address_detail": "관악구 봉천동 274-4", "latitude": 37.471989, "longitude": 126.958427, "dist_to_subway": 719.52090723272249 }, "geometry": { "type": "Point", "coordinates": [ 196252.711903772957157, 441090.846839139470831 ] } },
{ "type": "Feature", "properties": { "station_id": "ST-721", "address": "서울특별시 관악구 낙성대로 101", "address_detail": "관악구 봉천동 244-1", "latitude": 37.469055, "longitude": 126.958145, "dist_to_subway": 1002.3832117020572 }, "geometry": { "type": "Point", "coordinates": [ 196227.616467934392858, 440765.221270375186577 ] } },
{ "type": "Feature", "properties": { "station_id": "ST-720", "address": "서울특별시 관악구 관악로 153", "address_detail": "관악구 봉천동 979-3", "latitude": 37.479164, "longitude": 126.952583, "dist_to_subway": 231.59855888454993 }, "geometry": { "type": "Point", "coordinates": [ 195736.170163706294261, 441887.434643976914231 ] } },
{ "type": "Feature", "properties": { "station_id": "ST-72", "address": "서울특별시 영등포구 의사당대로 지하166", "address_detail": "샛강역 1번출구 앞", "latitude": 37.517765, "longitude": 126.928413, "dist_to_subway": 54.501080541710053 }, "geometry": { "type": "Point", "coordinates": [ 193601.643094626371749, 446173.065376273763832 ] } },
{ "type": "Feature", "properties": { "station_id": "ST-719", "address": "서울특별시 관악구 남부순환로 1889", "address_detail": "관악구 봉천동 1693-38", "latitude": 37.478058, "longitude": 126.960495, "dist_to_subway": 309.33792750882952 }, "geometry": { "type": "Point", "coordinates": [ 196435.938891038909787, 441764.348172305210028 ] } },
{ "type": "Feature", "properties": { "station_id": "ST-718", "address": "서울특별시 관악구 은천로 107", "address_detail": "관악구 봉천동 464-7", "latitude": 37.486774, "longitude": 126.947815, "dist_to_subway": 717.083975137886 }, "geometry": { "type": "Point", "coordinates": [ 195314.918748570489697, 442732.28037135390332 ] } },
{ "type": "Feature", "properties": { "station_id": "ST-717", "address": "서울특별시 관악구 남부순환로 지하 1822", "address_detail": "관악구 봉천동 979-2", "latitude": 37.481705, "longitude": 126.950829, "dist_to_subway": 176.41769720114249 }, "geometry": { "type": "Point", "coordinates": [ 195581.179376700602006, 442169.536161365394946 ] } },
{ "type": "Feature", "properties": { "station_id": "ST-716", "address": "서울특별시 관악구 남부순환로 1427", "address_detail": "관악구 신림동 564", "latitude": 37.481129, "longitude": 126.909431, "dist_to_subway": 776.0038292979732 }, "geometry": { "type": "Point", "coordinates": [ 191919.556908006663434, 442108.383109248592518 ] } },
{ "type": "Feature", "properties": { "station_id": "ST-715", "address": "서울특별시 관악구 남부순환로 지하 1822", "address_detail": "관악구 봉천동 979-2", "latitude": 37.481339, "longitude": 126.950645, "dist_to_subway": 185.49186395453862 }, "geometry": { "type": "Point", "coordinates": [ 195564.883047461509705, 442128.923473255184945 ] } },
{ "type": "Feature", "properties": { "station_id": "ST-714", "address": "서울특별시 관악구 봉천로 375", "address_detail": "관악구 봉천동 975-18", "latitude": 37.483341, "longitude": 126.943199, "dist_to_subway": 158.64917336783554 }, "geometry": { "type": "Point", "coordinates": [ 194906.435562862141524, 442351.502526934957132 ] } },
{ "type": "Feature", "properties": { "station_id": "ST-713", "address": "서울특별시 관악구 신림로 40", "address_detail": "관악구 신림동 808-133", "latitude": 37.475472, "longitude": 126.936455, "dist_to_subway": 430.59361061285006 }, "geometry": { "type": "Point", "coordinates": [ 194309.353578251000727, 441478.532080319535453 ] } },
{ "type": "Feature", "properties": { "station_id": "ST-712", "address": "서울특별시 관악구 남현동 1060-12", "address_detail": null, "latitude": 37.476089, "longitude": 126.981331, "dist_to_subway": 53.276066719719537 }, "geometry": { "type": "Point", "coordinates": [ 198278.878595604997827, 441545.214855556201655 ] } },
{ "type": "Feature", "properties": { "station_id": "ST-711", "address": "서울특별시 관악구 난곡로 317", "address_detail": "신림동 538", "latitude": 37.4818, "longitude": 126.915237, "dist_to_subway": 654.98551731530267 },